header: 
  seq: 184345
  stamp: 
    secs: 1565825427
    nsecs: 878960695
  frame_id: ''
pose: 
  position: 
    x: 0.643186283163
    y: -0.0807918041248
    z: 0.419477412292
  orientation: 
    x: 0.183516111781
    y: 0.691668274826
    z: 0.182175334157
    w: 0.674335956286
twist: 
  linear: 
    x: 0.0592920182574
    y: 0.0901460144609
    z: -0.0111906888568
  angular: 
    x: -0.0236444364414
    y: -0.0323460226264
    z: 0.0178027785907
wrench: 
  force: 
    x: 0.270413981203
    y: 3.30765760841
    z: -0.24570196189
  torque: 
    x: 0.453892429046
    y: 0.268089320669
    z: 0.475079214428
valid: True
---
header: 
  seq: 184346
  stamp: 
    secs: 1565825427
    nsecs: 888966203
  frame_id: ''
pose: 
  position: 
    x: 0.643063801538
    y: -0.0797235215911
    z: 0.419297431529
  orientation: 
    x: 0.183721681606
    y: 0.69158628187
    z: 0.182212848923
    w: 0.674353939801
twist: 
  linear: 
    x: 0.0635231563218
    y: 0.0884193367611
    z: -0.0101320446493
  angular: 
    x: -0.00383398656756
    y: -0.0135156008548
    z: 0.0137846391375
wrench: 
  force: 
    x: 0.962107972998
    y: 2.71030987073
    z: -1.23000797647
  torque: 
    x: 0.269768447947
    y: -0.188755977975
    z: 0.529485533734
valid: True
---
header: 
  seq: 184347
  stamp: 
    secs: 1565825427
    nsecs: 898976640
  frame_id: ''
pose: 
  position: 
    x: 0.642988241941
    y: -0.0787412980721
    z: 0.419257911154
  orientation: 
    x: 0.184097434378
    y: 0.691319768043
    z: 0.18229913258
    w: 0.674501400464
twist: 
  linear: 
    x: 0.0633780970703
    y: 0.0876541414548
    z: -0.00722298104375
  angular: 
    x: 0.00186852094182
    y: -0.024019704248
    z: 0.0308367728935
wrench: 
  force: 
    x: 0.523596973751
    y: 1.0088139428
    z: -0.884662741667
  torque: 
    x: 0.0518903922533
    y: -0.225526567333
    z: 0.611249595838
valid: True
---
header: 
  seq: 184348
  stamp: 
    secs: 1565825427
    nsecs: 908950058
  frame_id: ''
pose: 
  position: 
    x: 0.642965581738
    y: -0.0777227890692
    z: 0.419192617839
  orientation: 
    x: 0.184318258069
    y: 0.691214237825
    z: 0.182384977714
    w: 0.674526038841
twist: 
  linear: 
    x: 0.0551586172306
    y: 0.0833810430453
    z: -0.00812645220743
  angular: 
    x: 0.0247153653308
    y: -0.0534991797645
    z: 0.0674030790298
wrench: 
  force: 
    x: -0.0763134324015
    y: 0.857564456671
    z: -0.235569219923
  torque: 
    x: 0.178365065428
    y: 0.0606093345565
    z: 0.506459570895
valid: True
---
header: 
  seq: 184349
  stamp: 
    secs: 1565825427
    nsecs: 918963680
  frame_id: ''
pose: 
  position: 
    x: 0.642841280554
    y: -0.0767795528631
    z: 0.419086514549
  orientation: 
    x: 0.184795811723
    y: 0.691060828196
    z: 0.182472663617
    w: 0.674528847963
twist: 
  linear: 
    x: 0.0573423471427
    y: 0.0799101982188
    z: -0.00760157368572
  angular: 
    x: 0.0390804228787
    y: -0.0329654019758
    z: 0.0634161085814
wrench: 
  force: 
    x: 0.0835843951395
    y: 0.507746050678
    z: -0.249621958574
  torque: 
    x: 0.159914100299
    y: -0.124717057491
    z: 0.496357230297
valid: True
---
header: 
  seq: 184350
  stamp: 
    secs: 1565825427
    nsecs: 928965611
  frame_id: ''
pose: 
  position: 
    x: 0.642772592792
    y: -0.0760016575988
    z: 0.419006674245
  orientation: 
    x: 0.1853698488
    y: 0.690827871137
    z: 0.182498264002
    w: 0.674603035313
twist: 
  linear: 
    x: 0.0500910297295
    y: 0.0742518387784
    z: -0.00775997785206
  angular: 
    x: 0.0393979036451
    y: -0.0395533349497
    z: 0.0653714739513
wrench: 
  force: 
    x: -0.0858563292576
    y: -0.723432347216
    z: 0.0719584826209
  torque: 
    x: 0.0279901537444
    y: -0.213032474087
    z: 0.477144439454
valid: True
---
header: 
  seq: 184351
  stamp: 
    secs: 1565825427
    nsecs: 938965184
  frame_id: ''
pose: 
  position: 
    x: 0.642735790286
    y: -0.0753077595447
    z: 0.41895991999
  orientation: 
    x: 0.185827142086
    y: 0.690695836337
    z: 0.182369617132
    w: 0.67464720979
twist: 
  linear: 
    x: 0.0458203896393
    y: 0.0639876532775
    z: -0.00659684769059
  angular: 
    x: 0.0574806706741
    y: -0.0529671814854
    z: 0.0780254850724
wrench: 
  force: 
    x: -0.327908200327
    y: -0.936178447626
    z: -0.363008804023
  torque: 
    x: -0.0663974222253
    y: -0.164710593142
    z: 0.533991202339
valid: True
---
header: 
  seq: 184352
  stamp: 
    secs: 1565825427
    nsecs: 948962685
  frame_id: ''
pose: 
  position: 
    x: 0.642578855619
    y: -0.0746016500917
    z: 0.418866896644
  orientation: 
    x: 0.186271972946
    y: 0.690585094138
    z: 0.18241140849
    w: 0.674626606281
twist: 
  linear: 
    x: 0.0401256370442
    y: 0.057617237965
    z: -0.00800322996339
  angular: 
    x: 0.0668821955
    y: -0.0500311103738
    z: 0.0738619089324
wrench: 
  force: 
    x: -0.375717670666
    y: -0.202351179071
    z: -0.830633122024
  torque: 
    x: -0.00514825109877
    y: -0.137531753749
    z: 0.458526400252
valid: True
---
header: 
  seq: 184353
  stamp: 
    secs: 1565825427
    nsecs: 958961117
  frame_id: ''
pose: 
  position: 
    x: 0.642464890253
    y: -0.0738727296802
    z: 0.418857211146
  orientation: 
    x: 0.186500207805
    y: 0.690411117777
    z: 0.182494453896
    w: 0.67471915286
twist: 
  linear: 
    x: 0.0392582123268
    y: 0.0571418646882
    z: -0.0132037049382
  angular: 
    x: 0.0364909054967
    y: -0.0277036955687
    z: 0.0440874911383
wrench: 
  force: 
    x: -0.321178677951
    y: -0.363683033863
    z: -0.436640111708
  torque: 
    x: 0.0258656531677
    y: -0.206332247039
    z: 0.515251256437
valid: True
---
header: 
  seq: 184354
  stamp: 
    secs: 1565825427
    nsecs: 968951997
  frame_id: ''
pose: 
  position: 
    x: 0.642386732882
    y: -0.073176438127
    z: 0.418743009979
  orientation: 
    x: 0.186732269693
    y: 0.690374532756
    z: 0.182543475964
    w: 0.674679141045
twist: 
  linear: 
    x: 0.0392035344915
    y: 0.057649812809
    z: -0.0112443090545
  angular: 
    x: 0.022207175912
    y: -0.0293946827299
    z: 0.0484946009021
wrench: 
  force: 
    x: -0.496513208111
    y: -0.625163850658
    z: -0.214632745102
  torque: 
    x: -0.0453022514945
    y: -0.0848128260073
    z: 0.530743286591
valid: True
---
header: 
  seq: 184355
  stamp: 
    secs: 1565825427
    nsecs: 978962527
  frame_id: ''
pose: 
  position: 
    x: 0.642287473847
    y: -0.0725278493277
    z: 0.418744068478
  orientation: 
    x: 0.186786611237
    y: 0.690362502776
    z: 0.182452082735
    w: 0.674701129485
twist: 
  linear: 
    x: 0.0407955940734
    y: 0.0548902597697
    z: -0.00859318207951
  angular: 
    x: 0.0280401587451
    y: -0.0132194756384
    z: 0.0299082239136
wrench: 
  force: 
    x: -0.118373816354
    y: 1.25519630359
    z: -1.2527731556
  torque: 
    x: 0.208379814749
    y: -0.175553504092
    z: 0.394918130464
valid: True
---
header: 
  seq: 184356
  stamp: 
    secs: 1565825427
    nsecs: 988972438
  frame_id: ''
pose: 
  position: 
    x: 0.642207819386
    y: -0.071762070737
    z: 0.418668037606
  orientation: 
    x: 0.186742375499
    y: 0.690298362109
    z: 0.182649894816
    w: 0.674725479277
twist: 
  linear: 
    x: 0.038293624882
    y: 0.0597279610149
    z: -0.010431079963
  angular: 
    x: -0.00376080630751
    y: -0.00706991241438
    z: 0.00806195658719
wrench: 
  force: 
    x: 0.187318044471
    y: 1.60931064845
    z: -0.41448686002
  torque: 
    x: 0.29718143302
    y: -0.143852329853
    z: 0.412202587393
valid: True
---
header: 
  seq: 184357
  stamp: 
    secs: 1565825427
    nsecs: 998954211
  frame_id: ''
pose: 
  position: 
    x: 0.642143879267
    y: -0.0709262667995
    z: 0.418722291937
  orientation: 
    x: 0.186562385183
    y: 0.690228405973
    z: 0.182734322648
    w: 0.674823970639
twist: 
  linear: 
    x: 0.0395332641556
    y: 0.0679223677084
    z: -0.00797376919926
  angular: 
    x: -0.0364861774194
    y: -0.0147581636222
    z: 0.00908714198044
wrench: 
  force: 
    x: 0.275435133553
    y: 1.54448342173
    z: 0.377530453961
  torque: 
    x: 0.275473055791
    y: -0.0136993910567
    z: 0.461401410032
valid: True
---
header: 
  seq: 184358
  stamp: 
    secs: 1565825428
    nsecs:   8959625
  frame_id: ''
pose: 
  position: 
    x: 0.642115227194
    y: -0.069998208999
    z: 0.418670630352
  orientation: 
    x: 0.186262852736
    y: 0.690255422509
    z: 0.182856111703
    w: 0.674846088971
twist: 
  linear: 
    x: 0.0427468920334
    y: 0.0714972066267
    z: -0.0077663083559
  angular: 
    x: -0.0440265324029
    y: 0.00598638901716
    z: -0.0312419734674
wrench: 
  force: 
    x: 1.61551891342
    y: 2.01433891233
    z: -1.08546629908
  torque: 
    x: 0.191471253534
    y: -0.395418003576
    z: 0.522158645976
valid: True
---
header: 
  seq: 184359
  stamp: 
    secs: 1565825428
    nsecs:  18962862
  frame_id: ''
pose: 
  position: 
    x: 0.642117269185
    y: -0.0689478803563
    z: 0.418676595351
  orientation: 
    x: 0.185936595595
    y: 0.690102722793
    z: 0.183165473156
    w: 0.675008313916
twist: 
  linear: 
    x: 0.0514043656892
    y: 0.0828752510709
    z: -0.00233995234186
  angular: 
    x: -0.0685996975924
    y: 0.00232950561367
    z: -0.0180677081799
wrench: 
  force: 
    x: 1.91367003709
    y: 2.24978196953
    z: -1.30866305627
  torque: 
    x: 0.311137687875
    y: -0.285146542839
    z: 0.484041474793
valid: True
---
header: 
  seq: 184360
  stamp: 
    secs: 1565825428
    nsecs:  28964321
  frame_id: ''
pose: 
  position: 
    x: 0.64210654341
    y: -0.0678448041794
    z: 0.41855823043
  orientation: 
    x: 0.185439481011
    y: 0.690241537734
    z: 0.183321843594
    w: 0.674960680433
twist: 
  linear: 
    x: 0.056016734103
    y: 0.0884188600778
    z: -0.00087382899687
  angular: 
    x: -0.0858185574466
    y: 0.0015353802289
    z: -0.0152131696876
wrench: 
  force: 
    x: 1.66562290628
    y: 2.18183509736
    z: -0.555642133041
  torque: 
    x: 0.467506833957
    y: -0.0511558492604
    z: 0.398344610708
valid: True
---
header: 
  seq: 184361
  stamp: 
    secs: 1565825428
    nsecs:  38968732
  frame_id: ''
pose: 
  position: 
    x: 0.642090490796
    y: -0.0667349577953
    z: 0.418389535603
  orientation: 
    x: 0.185254665558
    y: 0.690366318509
    z: 0.183289141657
    w: 0.674892691995
twist: 
  linear: 
    x: 0.0673176378923
    y: 0.0879473792055
    z: -0.000768290823564
  angular: 
    x: -0.0549568411066
    y: 0.0406171630508
    z: -0.0497291588285
wrench: 
  force: 
    x: 2.27909163619
    y: 2.41624285253
    z: -0.838687717305
  torque: 
    x: 0.405723538827
    y: -0.330882122478
    z: 0.343855866468
valid: True
---
header: 
  seq: 184362
  stamp: 
    secs: 1565825428
    nsecs:  48971740
  frame_id: ''
pose: 
  position: 
    x: 0.642044348444
    y: -0.0656896834554
    z: 0.418228161815
  orientation: 
    x: 0.184897448763
    y: 0.690498429926
    z: 0.183219576135
    w: 0.674874387299
twist: 
  linear: 
    x: 0.0701324751562
    y: 0.0894050198605
    z: -0.00135634605199
  angular: 
    x: -0.0375943978272
    y: 0.0379302616779
    z: -0.0571483432271
wrench: 
  force: 
    x: 1.76685243044
    y: 2.58430375442
    z: -0.789789788982
  torque: 
    x: 0.412983863255
    y: -0.203970937744
    z: 0.414353043358
valid: True
---
header: 
  seq: 184363
  stamp: 
    secs: 1565825428
    nsecs:  58980760
  frame_id: ''
pose: 
  position: 
    x: 0.641998631933
    y: -0.0645917109488
    z: 0.418029006198
  orientation: 
    x: 0.184517570768
    y: 0.690730101066
    z: 0.183011418005
    w: 0.674797758175
twist: 
  linear: 
    x: 0.064785088058
    y: 0.0844231159233
    z: -0.00473031338094
  angular: 
    x: -0.0241052170018
    y: 0.0256961495963
    z: -0.0629226172374
wrench: 
  force: 
    x: 1.17730027623
    y: 2.09170935917
    z: -0.498390194093
  torque: 
    x: 0.303341292133
    y: -0.190919914391
    z: 0.494974252408
valid: True
---
header: 
  seq: 184364
  stamp: 
    secs: 1565825428
    nsecs:  68966687
  frame_id: ''
pose: 
  position: 
    x: 0.641939079899
    y: -0.0636220683684
    z: 0.417885476844
  orientation: 
    x: 0.184428842747
    y: 0.69086069072
    z: 0.182806486038
    w: 0.674743874847
twist: 
  linear: 
    x: 0.0680950700244
    y: 0.0796215363125
    z: -0.00426766305457
  angular: 
    x: 0.00503041834038
    y: 0.0378992232015
    z: -0.0669397153576
wrench: 
  force: 
    x: 1.40087125048
    y: 1.18991970629
    z: -0.894879138546
  torque: 
    x: 0.106723739469
    y: -0.439520803116
    z: 0.513849382425
valid: True
---
header: 
  seq: 184365
  stamp: 
    secs: 1565825428
    nsecs:  78950099
  frame_id: ''
pose: 
  position: 
    x: 0.641847718568
    y: -0.0627013233819
    z: 0.417727337526
  orientation: 
    x: 0.18429236607
    y: 0.690958008727
    z: 0.18251778355
    w: 0.674759670307
twist: 
  linear: 
    x: 0.0620665663282
    y: 0.0771143947909
    z: -0.00540733783394
  angular: 
    x: 0.0177354642468
    y: 0.0208008699871
    z: -0.0590274133005
wrench: 
  force: 
    x: 0.684390066583
    y: 1.1468572131
    z: -0.813545894991
  torque: 
    x: 0.134411294267
    y: -0.160148118804
    z: 0.586169637905
valid: True
---
header: 
  seq: 184366
  stamp: 
    secs: 1565825428
    nsecs:  88953247
  frame_id: ''
pose: 
  position: 
    x: 0.64179790879
    y: -0.06179667185
    z: 0.417573338535
  orientation: 
    x: 0.184313999723
    y: 0.691101819571
    z: 0.182147556557
    w: 0.674706522965
twist: 
  linear: 
    x: 0.0613330557378
    y: 0.0750476937065
    z: -0.00465388785097
  angular: 
    x: 0.0337607220626
    y: 0.0111283194561
    z: -0.0529362696228
wrench: 
  force: 
    x: 0.508600880613
    y: 0.569900042282
    z: -1.15507274422
  torque: 
    x: 0.0178994985616
    y: -0.186042029429
    z: 0.58911492975
valid: True
---
header: 
  seq: 184367
  stamp: 
    secs: 1565825428
    nsecs:  98969210
  frame_id: ''
pose: 
  position: 
    x: 0.641725341314
    y: -0.0609165343236
    z: 0.417360706992
  orientation: 
    x: 0.184250758418
    y: 0.691286419035
    z: 0.18191201288
    w: 0.674598224464
twist: 
  linear: 
    x: 0.0576756876714
    y: 0.0667528237236
    z: -0.00846101921228
  angular: 
    x: 0.0577609812685
    y: 0.0140755920951
    z: -0.050732664719
wrench: 
  force: 
    x: 0.909178865003
    y: -0.431815704531
    z: -0.897053890849
  torque: 
    x: -0.0442687655884
    y: -0.423688905044
    z: 0.496467214586
valid: True
---
header: 
  seq: 184368
  stamp: 
    secs: 1565825428
    nsecs: 108985755
  frame_id: ''
pose: 
  position: 
    x: 0.641595757808
    y: -0.0602930907429
    z: 0.417300780133
  orientation: 
    x: 0.184553318046
    y: 0.691244060276
    z: 0.181490550269
    w: 0.674672440592
twist: 
  linear: 
    x: 0.0526527561152
    y: 0.0624642471424
    z: -0.00806094930906
  angular: 
    x: 0.0475561752099
    y: -0.000152208233497
    z: -0.0312215575404
wrench: 
  force: 
    x: 0.413878321639
    y: -0.232863583742
    z: -0.683812081676
  torque: 
    x: -0.00179325731109
    y: -0.166915794743
    z: 0.516717257559
valid: True
---
header: 
  seq: 184369
  stamp: 
    secs: 1565825428
    nsecs: 118950962
  frame_id: ''
pose: 
  position: 
    x: 0.641469213658
    y: -0.0596231627688
    z: 0.417167888695
  orientation: 
    x: 0.184627150499
    y: 0.691388153149
    z: 0.181054354062
    w: 0.674621788752
twist: 
  linear: 
    x: 0.0431357541168
    y: 0.0507905241431
    z: -0.0129848204801
  angular: 
    x: 0.0928325603023
    y: -0.0147867394552
    z: -0.0324503589554
wrench: 
  force: 
    x: 0.335202147094
    y: -0.423369763643
    z: -0.958185641099
  torque: 
    x: -0.227271563942
    y: -0.252777394946
    z: 0.519836727059
valid: True
---
header: 
  seq: 184370
  stamp: 
    secs: 1565825428
    nsecs: 128965936
  frame_id: ''
pose: 
  position: 
    x: 0.641315457208
    y: -0.058956146019
    z: 0.41710684726
  orientation: 
    x: 0.184873922517
    y: 0.691341023224
    z: 0.180891453998
    w: 0.674646206727
twist: 
  linear: 
    x: 0.0431624404092
    y: 0.0501627952031
    z: -0.0138400442327
  angular: 
    x: 0.0763345796825
    y: 0.000636727449406
    z: -0.0347897738473
wrench: 
  force: 
    x: 0.324294428159
    y: -0.552814606078
    z: -1.29136683435
  torque: 
    x: -0.30003300687
    y: -0.512077905393
    z: 0.669915349826
valid: True
---
header: 
  seq: 184371
  stamp: 
    secs: 1565825428
    nsecs: 138951563
  frame_id: ''
pose: 
  position: 
    x: 0.64117023425
    y: -0.0583319159763
    z: 0.416992118498
  orientation: 
    x: 0.18538779966
    y: 0.69119409165
    z: 0.180891127932
    w: 0.674655831695
twist: 
  linear: 
    x: 0.0394218537736
    y: 0.0522849239274
    z: -0.0150724048262
  angular: 
    x: 0.0532482596498
    y: -0.0234131869483
    z: 0.0159127995066
wrench: 
  force: 
    x: 0.340688469653
    y: -0.884982959632
    z: -0.674744673366
  torque: 
    x: -0.390951773574
    y: -0.333229164193
    z: 0.707861684643
valid: True
---
header: 
  seq: 184372
  stamp: 
    secs: 1565825428
    nsecs: 148965611
  frame_id: ''
pose: 
  position: 
    x: 0.641034138037
    y: -0.0575662756192
    z: 0.416920137907
  orientation: 
    x: 0.185396976823
    y: 0.691134152268
    z: 0.181022555727
    w: 0.674679463798
twist: 
  linear: 
    x: 0.0417578548739
    y: 0.0571672091135
    z: -0.0134765488585
  angular: 
    x: 0.0261559003262
    y: -0.033633487484
    z: 0.059535574553
wrench: 
  force: 
    x: 0.760230912621
    y: -0.32154847191
    z: 0.0328420160681
  torque: 
    x: -0.211933930035
    y: -0.217556102479
    z: 0.552539159335
valid: True
---
header: 
  seq: 184373
  stamp: 
    secs: 1565825428
    nsecs: 158964444
  frame_id: ''
pose: 
  position: 
    x: 0.640898960221
    y: -0.0567651735133
    z: 0.41683218657
  orientation: 
    x: 0.185627082353
    y: 0.690992034555
    z: 0.181167472878
    w: 0.674722862552
twist: 
  linear: 
    x: 0.0443967574817
    y: 0.0616534558322
    z: -0.0128012345606
  angular: 
    x: -0.00622063931936
    y: -0.0182018881817
    z: 0.0358681730428
wrench: 
  force: 
    x: 0.877660779688
    y: 0.910105803442
    z: -0.391967780455
  torque: 
    x: 0.0406301822221
    y: -0.173139318421
    z: 0.485533235525
valid: True
---
header: 
  seq: 184374
  stamp: 
    secs: 1565825428
    nsecs: 168979523
  frame_id: ''
pose: 
  position: 
    x: 0.640798803578
    y: -0.0559021427163
    z: 0.416744283265
  orientation: 
    x: 0.18566907918
    y: 0.690876032475
    z: 0.181494773476
    w: 0.67474213444
twist: 
  linear: 
    x: 0.0475438764781
    y: 0.0652941406446
    z: -0.0133751994467
  angular: 
    x: -0.0116472467958
    y: -0.0248471067975
    z: 0.05780784685
wrench: 
  force: 
    x: 0.566249291062
    y: 0.853141734281
    z: -0.361129881643
  torque: 
    x: -0.0595256188628
    y: -0.0202798384481
    z: 0.512284464611
valid: True
---
header: 
  seq: 184375
  stamp: 
    secs: 1565825428
    nsecs: 178952059
  frame_id: ''
pose: 
  position: 
    x: 0.640617184574
    y: -0.0550188287818
    z: 0.416711461215
  orientation: 
    x: 0.185761456357
    y: 0.690644205609
    z: 0.181834946539
    w: 0.674862441397
twist: 
  linear: 
    x: 0.0500801946483
    y: 0.0728039568048
    z: -0.0148287156712
  angular: 
    x: -0.0410043122112
    y: -0.0242644097656
    z: 0.0599078299369
wrench: 
  force: 
    x: 0.347128672907
    y: 1.38263723041
    z: 0.113407824706
  torque: 
    x: 0.111844304444
    y: 0.169175889053
    z: 0.509532570596
valid: True
---
header: 
  seq: 184376
  stamp: 
    secs: 1565825428
    nsecs: 188965652
  frame_id: ''
pose: 
  position: 
    x: 0.640468612427
    y: -0.0539994751551
    z: 0.416569856298
  orientation: 
    x: 0.185543127275
    y: 0.690629066507
    z: 0.182096858007
    w: 0.674867375653
twist: 
  linear: 
    x: 0.0521504597646
    y: 0.0781512032252
    z: -0.0159148858638
  angular: 
    x: -0.0626169106719
    y: -0.0104374284082
    z: 0.0265849684537
wrench: 
  force: 
    x: 0.34285022728
    y: 1.69003454178
    z: -0.0592065485698
  torque: 
    x: 0.123847693264
    y: 0.119509479426
    z: 0.484179229655
valid: True
---
header: 
  seq: 184377
  stamp: 
    secs: 1565825428
    nsecs: 198953690
  frame_id: ''
pose: 
  position: 
    x: 0.640310244762
    y: -0.0529228397202
    z: 0.416481873091
  orientation: 
    x: 0.185463591386
    y: 0.690481259435
    z: 0.182451313373
    w: 0.674944742099
twist: 
  linear: 
    x: 0.0601714320417
    y: 0.0847177580394
    z: -0.0139132200801
  angular: 
    x: -0.0691050599803
    y: -0.00491998280593
    z: 0.0233265090043
wrench: 
  force: 
    x: -0.118817589387
    y: 1.46592851535
    z: -0.171866581044
  torque: 
    x: -0.0260589265141
    y: 0.216732807929
    z: 0.626243161925
valid: True
---
header: 
  seq: 184378
  stamp: 
    secs: 1565825428
    nsecs: 208962742
  frame_id: ''
pose: 
  position: 
    x: 0.640113287376
    y: -0.0518203272042
    z: 0.416329386537
  orientation: 
    x: 0.185232147503
    y: 0.690508463705
    z: 0.182637585271
    w: 0.674930089364
twist: 
  linear: 
    x: 0.0653206774903
    y: 0.0893715227767
    z: -0.0162507534347
  angular: 
    x: -0.0735115817782
    y: 0.00372246697566
    z: 0.0145268264232
wrench: 
  force: 
    x: 0.0211170837367
    y: 1.49139955879
    z: -0.215852835447
  torque: 
    x: 0.00178325531406
    y: 0.126181125198
    z: 0.646590277952
valid: True
---
header: 
  seq: 184379
  stamp: 
    secs: 1565825428
    nsecs: 218985004
  frame_id: ''
pose: 
  position: 
    x: 0.639960113906
    y: -0.0505704020882
    z: 0.416233300678
  orientation: 
    x: 0.184948248463
    y: 0.690435331737
    z: 0.183043647853
    w: 0.674972755791
twist: 
  linear: 
    x: 0.0702193291267
    y: 0.0946921346413
    z: -0.0153872562776
  angular: 
    x: -0.074314186981
    y: 0.0140025943362
    z: 0.00632150341797
wrench: 
  force: 
    x: -0.0108855609369
    y: 0.955084275283
    z: 1.07852121701
  torque: 
    x: -0.0425891653673
    y: 0.146780509736
    z: 0.555981689236
valid: True
---
header: 
  seq: 184380
  stamp: 
    secs: 1565825428
    nsecs: 228987174
  frame_id: ''
pose: 
  position: 
    x: 0.639850995387
    y: -0.0494143497906
    z: 0.416103532903
  orientation: 
    x: 0.184648773302
    y: 0.690441527313
    z: 0.18313757026
    w: 0.675022931639
twist: 
  linear: 
    x: 0.0720835918633
    y: 0.0943086819926
    z: -0.0154904280124
  angular: 
    x: -0.0664501487221
    y: 0.010909389493
    z: 0.00328852108939
wrench: 
  force: 
    x: -0.137673657368
    y: 1.97580727601
    z: 1.21050729089
  torque: 
    x: 0.194336345564
    y: 0.278087249271
    z: 0.534874189626
valid: True
---
header: 
  seq: 184381
  stamp: 
    secs: 1565825428
    nsecs: 238952125
  frame_id: ''
pose: 
  position: 
    x: 0.639711183509
    y: -0.0482394677804
    z: 0.415908511083
  orientation: 
    x: 0.184534285772
    y: 0.690489018774
    z: 0.18307796407
    w: 0.675021830313
twist: 
  linear: 
    x: 0.072970631345
    y: 0.0947101644191
    z: -0.0131246175972
  angular: 
    x: -0.0375272303273
    y: 0.0153106747435
    z: -0.0252046356915
wrench: 
  force: 
    x: 0.351875279732
    y: 1.93056200281
    z: 1.2647838407
  torque: 
    x: 0.114662860437
    y: 0.0615398771183
    z: 0.50485771349
valid: True
---
header: 
  seq: 184382
  stamp: 
    secs: 1565825428
    nsecs: 248947849
  frame_id: ''
pose: 
  position: 
    x: 0.639588638927
    y: -0.0471179447121
    z: 0.415876235376
  orientation: 
    x: 0.18439113337
    y: 0.6904325339
    z: 0.183039281127
    w: 0.675129208101
twist: 
  linear: 
    x: 0.0692834845743
    y: 0.0938419101658
    z: -0.0137967051205
  angular: 
    x: -0.0181740314526
    y: 0.00229717256518
    z: -0.031138014241
wrench: 
  force: 
    x: 0.397319030178
    y: 1.47132763956
    z: 1.06028794433
  torque: 
    x: -0.00147954185391
    y: 0.0467378501457
    z: 0.583747056432
valid: True
---
header: 
  seq: 184383
  stamp: 
    secs: 1565825428
    nsecs: 258946702
  frame_id: ''
pose: 
  position: 
    x: 0.639466906272
    y: -0.0461073876581
    z: 0.415704247035
  orientation: 
    x: 0.184340425093
    y: 0.690488543026
    z: 0.182871522565
    w: 0.675131236028
twist: 
  linear: 
    x: 0.0626142568347
    y: 0.087545257276
    z: -0.0139586401943
  angular: 
    x: -0.00241441791877
    y: -0.0159581074733
    z: -0.0192911176083
wrench: 
  force: 
    x: 0.241807937876
    y: 0.611954465008
    z: 1.39837569495
  torque: 
    x: -0.045679081206
    y: 0.137263517204
    z: 0.602835930048
valid: True
---
header: 
  seq: 184384
  stamp: 
    secs: 1565825428
    nsecs: 268977949
  frame_id: ''
pose: 
  position: 
    x: 0.639334495287
    y: -0.0451018701512
    z: 0.415643680907
  orientation: 
    x: 0.184450207961
    y: 0.690441694293
    z: 0.182728143588
    w: 0.675187983532
twist: 
  linear: 
    x: 0.0620562432086
    y: 0.0826210116001
    z: -0.0129323297805
  angular: 
    x: 0.0255536137316
    y: -0.0138890012789
    z: -0.0186664323053
wrench: 
  force: 
    x: 0.327719723774
    y: 0.350317201668
    z: 1.21702922123
  torque: 
    x: -0.0936220412402
    y: -0.0230572162661
    z: 0.485522716059
valid: True
---
header: 
  seq: 184385
  stamp: 
    secs: 1565825428
    nsecs: 278977830
  frame_id: ''
pose: 
  position: 
    x: 0.639099057739
    y: -0.0442630405687
    z: 0.415474514287
  orientation: 
    x: 0.184748864547
    y: 0.690426779422
    z: 0.182470017211
    w: 0.675191389255
twist: 
  linear: 
    x: 0.0576439625851
    y: 0.0762689460843
    z: -0.0164156514748
  angular: 
    x: 0.0418169732865
    y: -0.0118594533171
    z: -0.0183748752933
wrench: 
  force: 
    x: 0.618899217447
    y: -0.14883809882
    z: 0.943622504547
  torque: 
    x: -0.142593594996
    y: -0.166421699804
    z: 0.500850923204
valid: True
---
header: 
  seq: 184386
  stamp: 
    secs: 1565825428
    nsecs: 288961295
  frame_id: ''
pose: 
  position: 
    x: 0.63893749371
    y: -0.0434846288456
    z: 0.415317048113
  orientation: 
    x: 0.184905137684
    y: 0.690495877767
    z: 0.18202303424
    w: 0.675198598822
twist: 
  linear: 
    x: 0.0536275388375
    y: 0.0686054904535
    z: -0.0174016101531
  angular: 
    x: 0.0579882342954
    y: -0.0197911836526
    z: -0.0208432597729
wrench: 
  force: 
    x: 0.347602265988
    y: -0.185666166194
    z: 0.585559291423
  torque: 
    x: -0.150246024527
    y: -0.094518298778
    z: 0.532672972113
valid: True
---
header: 
  seq: 184387
  stamp: 
    secs: 1565825428
    nsecs: 298982373
  frame_id: ''
pose: 
  position: 
    x: 0.638660649087
    y: -0.0427835188479
    z: 0.415178730845
  orientation: 
    x: 0.185209694074
    y: 0.690491017699
    z: 0.18169039413
    w: 0.675209689192
twist: 
  linear: 
    x: 0.0477620715548
    y: 0.0571423437617
    z: -0.0205853580795
  angular: 
    x: 0.0992735203998
    y: -0.0320117224016
    z: -0.00867277842949
wrench: 
  force: 
    x: 0.358896158606
    y: -0.390848106694
    z: -0.0431860723031
  torque: 
    x: -0.2305113853
    y: -0.107279376907
    z: 0.484026886329
valid: True
---
header: 
  seq: 184388
  stamp: 
    secs: 1565825428
    nsecs: 308969074
  frame_id: ''
pose: 
  position: 
    x: 0.638430808252
    y: -0.0421049925339
    z: 0.415047802922
  orientation: 
    x: 0.185568626527
    y: 0.690438479171
    z: 0.181526020518
    w: 0.675209075179
twist: 
  linear: 
    x: 0.0448420870021
    y: 0.0536995793424
    z: -0.0232419183147
  angular: 
    x: 0.0752047512697
    y: -0.0226184805284
    z: -0.00593574188414
wrench: 
  force: 
    x: 0.382201322351
    y: -0.551552663603
    z: 0.429705055833
  torque: 
    x: -0.181844757014
    y: -0.126552862882
    z: 0.485768269555
valid: True
---
header: 
  seq: 184389
  stamp: 
    secs: 1565825428
    nsecs: 318948734
  frame_id: ''
pose: 
  position: 
    x: 0.638197774541
    y: -0.0414686684176
    z: 0.414984287565
  orientation: 
    x: 0.185807349865
    y: 0.69041745116
    z: 0.181288892003
    w: 0.675228634986
twist: 
  linear: 
    x: 0.0433836548457
    y: 0.0493897814986
    z: -0.0249855934031
  angular: 
    x: 0.0737808152472
    y: -0.0244603659922
    z: 0.00844259010018
wrench: 
  force: 
    x: 0.0778301570464
    y: -0.443162300542
    z: 0.0681059045642
  torque: 
    x: -0.239231734434
    y: -0.074785185842
    z: 0.512389840789
valid: True
---
header: 
  seq: 184390
  stamp: 
    secs: 1565825428
    nsecs: 328960545
  frame_id: ''
pose: 
  position: 
    x: 0.637872379211
    y: -0.04085430449
    z: 0.41485703571
  orientation: 
    x: 0.185802356831
    y: 0.690485582894
    z: 0.181144388591
    w: 0.675199122107
twist: 
  linear: 
    x: 0.0420926444725
    y: 0.0485683960399
    z: -0.0271162554916
  angular: 
    x: 0.06010837443
    y: -0.0129367256724
    z: 0.00340759399741
wrench: 
  force: 
    x: 0.476396818341
    y: -0.688198770926
    z: 0.726776894706
  torque: 
    x: -0.371874581148
    y: -0.256027152237
    z: 0.583607819395
valid: True
---
header: 
  seq: 184391
  stamp: 
    secs: 1565825428
    nsecs: 338963539
  frame_id: ''
pose: 
  position: 
    x: 0.637599494403
    y: -0.0402045832564
    z: 0.414824966366
  orientation: 
    x: 0.186074231802
    y: 0.690223243771
    z: 0.181372915413
    w: 0.675331118469
twist: 
  linear: 
    x: 0.0395189566161
    y: 0.0525589080608
    z: -0.0285312775181
  angular: 
    x: 0.00387607817043
    y: -0.0185741284562
    z: 0.0117315181983
wrench: 
  force: 
    x: 0.665871988764
    y: -0.551922542187
    z: 1.53474382214
  torque: 
    x: -0.274086056215
    y: -0.194870860847
    z: 0.560564795698
valid: True
---
header: 
  seq: 184392
  stamp: 
    secs: 1565825428
    nsecs: 348959455
  frame_id: ''
pose: 
  position: 
    x: 0.637334004768
    y: -0.0394795651801
    z: 0.414793148992
  orientation: 
    x: 0.186050806047
    y: 0.690098405839
    z: 0.181519275112
    w: 0.675425821679
twist: 
  linear: 
    x: 0.0379187657026
    y: 0.0531517818432
    z: -0.0292626946488
  angular: 
    x: -0.0130829057828
    y: -0.0351196827931
    z: 0.0494758899375
wrench: 
  force: 
    x: 0.759607662047
    y: 0.11585000005
    z: 2.24409410921
  torque: 
    x: -0.114796608249
    y: 0.0536462738142
    z: 0.451432638776
valid: True
---
header: 
  seq: 184393
  stamp: 
    secs: 1565825428
    nsecs: 358946614
  frame_id: ''
pose: 
  position: 
    x: 0.637006726247
    y: -0.0387607261441
    z: 0.414692398096
  orientation: 
    x: 0.186201574183
    y: 0.689993900123
    z: 0.181738910602
    w: 0.675431980246
twist: 
  linear: 
    x: 0.036576606292
    y: 0.0569936041291
    z: -0.0296944130479
  angular: 
    x: -0.0215626112589
    y: -0.028513618468
    z: 0.0341855202462
wrench: 
  force: 
    x: 1.02858717013
    y: 1.57618422777
    z: 0.815637619162
  torque: 
    x: 0.104245473795
    y: -0.0512499885296
    z: 0.422762125232
valid: True
---
header: 
  seq: 184394
  stamp: 
    secs: 1565825428
    nsecs: 368993921
  frame_id: ''
pose: 
  position: 
    x: 0.636686020503
    y: -0.038079738589
    z: 0.414736756938
  orientation: 
    x: 0.186151405217
    y: 0.689861248573
    z: 0.18178794819
    w: 0.675568097194
twist: 
  linear: 
    x: 0.0383638106771
    y: 0.0590383437957
    z: -0.0328909676285
  angular: 
    x: -0.0186644385852
    y: -0.0261221992337
    z: 0.0314912590361
wrench: 
  force: 
    x: 0.401632513123
    y: 0.840002231103
    z: -0.176156685101
  torque: 
    x: -0.0395275076178
    y: -0.0451395602102
    z: 0.464718838343
valid: True
---
header: 
  seq: 184395
  stamp: 
    secs: 1565825428
    nsecs: 378959375
  frame_id: ''
pose: 
  position: 
    x: 0.636267366216
    y: -0.0374119532273
    z: 0.414750393549
  orientation: 
    x: 0.186313401174
    y: 0.689612826981
    z: 0.181932986205
    w: 0.675738006876
twist: 
  linear: 
    x: 0.0344493763638
    y: 0.0588592981076
    z: -0.0366598233375
  angular: 
    x: -0.0169795900388
    y: -0.04238524182
    z: 0.0296200906661
wrench: 
  force: 
    x: -0.323280326301
    y: 1.31251135554
    z: -1.43957196782
  torque: 
    x: 0.0454358640522
    y: 0.12318018026
    z: 0.514398813192
valid: True
---
header: 
  seq: 184396
  stamp: 
    secs: 1565825428
    nsecs: 388960495
  frame_id: ''
pose: 
  position: 
    x: 0.635740076201
    y: -0.0366969960263
    z: 0.414697837317
  orientation: 
    x: 0.186343380586
    y: 0.689526287986
    z: 0.182001991625
    w: 0.67579946562
twist: 
  linear: 
    x: 0.0376948317333
    y: 0.0609419930386
    z: -0.042879561611
  angular: 
    x: -0.0183463778931
    y: -0.0310886654124
    z: 0.0143817025332
wrench: 
  force: 
    x: -0.132435135629
    y: 2.54426411297
    z: -3.05489130134
  torque: 
    x: 0.17707832208
    y: 0.0441386353835
    z: 0.543274747496
valid: True
---
header: 
  seq: 184397
  stamp: 
    secs: 1565825428
    nsecs: 398970315
  frame_id: ''
pose: 
  position: 
    x: 0.635134197056
    y: -0.0359410678297
    z: 0.414714633053
  orientation: 
    x: 0.186108233102
    y: 0.689428475052
    z: 0.182037046869
    w: 0.675954596793
twist: 
  linear: 
    x: 0.0383508684648
    y: 0.062426786357
    z: -0.0552060663168
  angular: 
    x: -0.0206000473055
    y: -0.0239598162586
    z: -0.00770119160246
wrench: 
  force: 
    x: -0.555331111707
    y: 1.90873491105
    z: -2.3860626941
  torque: 
    x: -0.0257716735962
    y: 0.0851719867964
    z: 0.608845062487
valid: True
---
header: 
  seq: 184398
  stamp: 
    secs: 1565825428
    nsecs: 408962643
  frame_id: ''
pose: 
  position: 
    x: 0.634493277377
    y: -0.0351158098438
    z: 0.414733939473
  orientation: 
    x: 0.185893391213
    y: 0.689338273984
    z: 0.182049386566
    w: 0.676102367971
twist: 
  linear: 
    x: 0.0410246486972
    y: 0.0674982511321
    z: -0.0619814408315
  angular: 
    x: -0.0510090609642
    y: -0.0222612585215
    z: -0.0212726297658
wrench: 
  force: 
    x: -0.938836044049
    y: 2.01675621074
    z: -2.25848115869
  torque: 
    x: 0.0645589226126
    y: 0.179119780474
    z: 0.665440890617
valid: True
---
header: 
  seq: 184399
  stamp: 
    secs: 1565825428
    nsecs: 418992718
  frame_id: ''
pose: 
  position: 
    x: 0.633788205967
    y: -0.0342733174555
    z: 0.414609425757
  orientation: 
    x: 0.185797394254
    y: 0.68930231501
    z: 0.182095894464
    w: 0.676152891016
twist: 
  linear: 
    x: 0.0415363157788
    y: 0.0702437361308
    z: -0.0653037647876
  angular: 
    x: -0.0350501739889
    y: -0.0280675725689
    z: -0.013628226973
wrench: 
  force: 
    x: -0.722431147495
    y: 2.0554309486
    z: -2.54909908545
  torque: 
    x: 0.0429367391098
    y: 0.0779610597389
    z: 0.534657344145
valid: True
---
header: 
  seq: 184400
  stamp: 
    secs: 1565825428
    nsecs: 428974010
  frame_id: ''
pose: 
  position: 
    x: 0.633041506599
    y: -0.0334629618502
    z: 0.414693664449
  orientation: 
    x: 0.185468957267
    y: 0.689105322496
    z: 0.182197400266
    w: 0.676416460277
twist: 
  linear: 
    x: 0.0446816145983
    y: 0.0710608771879
    z: -0.0716201710213
  angular: 
    x: -0.0499172252284
    y: -0.0241872134195
    z: -0.0278520035629
wrench: 
  force: 
    x: -0.0507699855897
    y: 2.17234713757
    z: -2.63786824749
  torque: 
    x: 0.214909268969
    y: -0.0659761734679
    z: 0.372029559833
valid: True
---
header: 
  seq: 184401
  stamp: 
    secs: 1565825428
    nsecs: 438982389
  frame_id: ''
pose: 
  position: 
    x: 0.632227012077
    y: -0.032663056059
    z: 0.414714759992
  orientation: 
    x: 0.185414652094
    y: 0.68898485958
    z: 0.182139811541
    w: 0.676569552308
twist: 
  linear: 
    x: 0.0402422111604
    y: 0.0706945344093
    z: -0.0778763031838
  angular: 
    x: -0.0451957660163
    y: -0.0366352662649
    z: -0.0233402271133
wrench: 
  force: 
    x: 0.150165750923
    y: 1.62926089006
    z: -2.63450748419
  torque: 
    x: 0.063195218954
    y: -0.0603316602947
    z: 0.47205725631
valid: True
---
header: 
  seq: 184402
  stamp: 
    secs: 1565825428
    nsecs: 448948038
  frame_id: ''
pose: 
  position: 
    x: 0.631485945497
    y: -0.031875360877
    z: 0.414724839928
  orientation: 
    x: 0.185090238716
    y: 0.688863676998
    z: 0.182083958166
    w: 0.67679677173
twist: 
  linear: 
    x: 0.0401711512552
    y: 0.0676717667904
    z: -0.0788396011238
  angular: 
    x: -0.0237968665033
    y: -0.0328483534851
    z: -0.0381302401836
wrench: 
  force: 
    x: 1.18315623758
    y: 0.219363796127
    z: -2.18589945706
  torque: 
    x: -0.246425383862
    y: -0.45198372541
    z: 0.48449713801
valid: True
---
header: 
  seq: 184403
  stamp: 
    secs: 1565825428
    nsecs: 458950152
  frame_id: ''
pose: 
  position: 
    x: 0.630826287085
    y: -0.0310265961808
    z: 0.414697747932
  orientation: 
    x: 0.184893720537
    y: 0.688657315843
    z: 0.182132304342
    w: 0.677047440847
twist: 
  linear: 
    x: 0.0412265812912
    y: 0.0695072786496
    z: -0.0757667334222
  angular: 
    x: -0.0601718950573
    y: -0.0392039672053
    z: -0.0463755612454
wrench: 
  force: 
    x: 1.50730803908
    y: 0.591898496693
    z: -2.32526792143
  torque: 
    x: -0.0885226339391
    y: -0.408240550012
    z: 0.561499753886
valid: True
---
header: 
  seq: 184404
  stamp: 
    secs: 1565825428
    nsecs: 468958955
  frame_id: ''
pose: 
  position: 
    x: 0.630114488221
    y: -0.0303447443773
    z: 0.414733069845
  orientation: 
    x: 0.184779998342
    y: 0.688446347512
    z: 0.182043129684
    w: 0.677316969922
twist: 
  linear: 
    x: 0.0386734278987
    y: 0.0663245439617
    z: -0.070800206116
  angular: 
    x: -0.0263362650584
    y: -0.0676656925619
    z: -0.0160759188631
wrench: 
  force: 
    x: 1.01412358553
    y: 0.158971965923
    z: -1.84202847381
  torque: 
    x: -0.280305403963
    y: -0.170947083302
    z: 0.521256862438
valid: True
---
header: 
  seq: 184405
  stamp: 
    secs: 1565825428
    nsecs: 478964589
  frame_id: ''
pose: 
  position: 
    x: 0.62943007904
    y: -0.0294741729073
    z: 0.414638728689
  orientation: 
    x: 0.184361726699
    y: 0.688327126792
    z: 0.182208453752
    w: 0.677507638062
twist: 
  linear: 
    x: 0.0443938975795
    y: 0.063883016713
    z: -0.0687944796793
  angular: 
    x: -0.0477569867058
    y: -0.0391646759549
    z: -0.0385819151125
wrench: 
  force: 
    x: 1.89437586449
    y: -0.708787488215
    z: -1.4470945245
  torque: 
    x: -0.196432220078
    y: -0.551890789512
    z: 0.459015687824
valid: True
---
header: 
  seq: 184406
  stamp: 
    secs: 1565825428
    nsecs: 488986942
  frame_id: ''
pose: 
  position: 
    x: 0.628855762423
    y: -0.0287945028274
    z: 0.414564041241
  orientation: 
    x: 0.184417431652
    y: 0.688096145301
    z: 0.182101017895
    w: 0.677755947968
twist: 
  linear: 
    x: 0.0429727016808
    y: 0.0634859966425
    z: -0.0648784895533
  angular: 
    x: -0.0492846296022
    y: -0.0498307588631
    z: -0.0342966982048
wrench: 
  force: 
    x: 1.60542350967
    y: -0.589240872354
    z: -0.951359152055
  torque: 
    x: -0.192990005509
    y: -0.408532333906
    z: 0.359384608436
valid: True
---
header: 
  seq: 184407
  stamp: 
    secs: 1565825428
    nsecs: 498986852
  frame_id: ''
pose: 
  position: 
    x: 0.628316053213
    y: -0.0280751344944
    z: 0.414474934454
  orientation: 
    x: 0.184183271995
    y: 0.688004177962
    z: 0.182061195036
    w: 0.67792366435
twist: 
  linear: 
    x: 0.04129982358
    y: 0.0564352363288
    z: -0.0577422898803
  angular: 
    x: -0.00811065583855
    y: -0.060373413297
    z: -0.0180706395684
wrench: 
  force: 
    x: 1.25489325461
    y: -0.411071921202
    z: -0.190215727997
  torque: 
    x: -0.223839980862
    y: -0.218068104537
    z: 0.35987852135
valid: True
---
header: 
  seq: 184408
  stamp: 
    secs: 1565825428
    nsecs: 508967003
  frame_id: ''
pose: 
  position: 
    x: 0.627803634744
    y: -0.0274360231046
    z: 0.414344899047
  orientation: 
    x: 0.184253796756
    y: 0.687856410134
    z: 0.182070712906
    w: 0.6780518807
twist: 
  linear: 
    x: 0.0431734851902
    y: 0.0540637766135
    z: -0.0532011306684
  angular: 
    x: -0.0377836111813
    y: -0.0275050570024
    z: -0.0299275712974
wrench: 
  force: 
    x: 1.71239262203
    y: -0.450313048266
    z: -0.236398883458
  torque: 
    x: -0.188012109571
    y: -0.578733019343
    z: 0.335723359666
valid: True
---
header: 
  seq: 184409
  stamp: 
    secs: 1565825428
    nsecs: 518967127
  frame_id: ''
pose: 
  position: 
    x: 0.627363229005
    y: -0.0268844418334
    z: 0.414211759188
  orientation: 
    x: 0.184654584601
    y: 0.68765094508
    z: 0.182074935291
    w: 0.678150116165
twist: 
  linear: 
    x: 0.0418721887352
    y: 0.0497583987523
    z: -0.0468686736994
  angular: 
    x: 0.0105538573063
    y: -0.0529220039201
    z: 0.0342114179039
wrench: 
  force: 
    x: 1.217592119
    y: -1.45663997091
    z: 1.0015140568
  torque: 
    x: -0.474024472673
    y: -0.356620903964
    z: 0.374844776982
valid: True
---
header: 
  seq: 184410
  stamp: 
    secs: 1565825428
    nsecs: 528962121
  frame_id: ''
pose: 
  position: 
    x: 0.626990436633
    y: -0.0261659776279
    z: 0.414104060777
  orientation: 
    x: 0.184685559089
    y: 0.687516805641
    z: 0.18238312762
    w: 0.678194869477
twist: 
  linear: 
    x: 0.0430863459516
    y: 0.0482900209831
    z: -0.0440288115966
  angular: 
    x: 0.00281208374274
    y: -0.0382689686549
    z: 0.0490670592708
wrench: 
  force: 
    x: 0.909998055134
    y: 0.606214218847
    z: 0.555875806811
  torque: 
    x: -0.104852206049
    y: -0.216755849792
    z: 0.384006571114
valid: True
---
header: 
  seq: 184411
  stamp: 
    secs: 1565825428
    nsecs: 538952961
  frame_id: ''
pose: 
  position: 
    x: 0.626597966741
    y: -0.0255803102991
    z: 0.413941211191
  orientation: 
    x: 0.185112063699
    y: 0.687365058872
    z: 0.182437770959
    w: 0.678217707998
twist: 
  linear: 
    x: 0.0470852279735
    y: 0.0482924561932
    z: -0.0394742259991
  angular: 
    x: 0.0014162446672
    y: -0.0183860389876
    z: 0.0565312131071
wrench: 
  force: 
    x: 1.19750844111
    y: 1.24009617586
    z: 0.120826450548
  torque: 
    x: -0.0602917437256
    y: -0.36791904804
    z: 0.257342483344
valid: True
---
header: 
  seq: 184412
  stamp: 
    secs: 1565825428
    nsecs: 548963652
  frame_id: ''
pose: 
  position: 
    x: 0.626230999279
    y: -0.0248966781077
    z: 0.413768909208
  orientation: 
    x: 0.185613479396
    y: 0.687123351468
    z: 0.182907961102
    w: 0.678198948612
twist: 
  linear: 
    x: 0.0439063718777
    y: 0.0448423750572
    z: -0.0383595719943
  angular: 
    x: 0.0316452322542
    y: -0.0433722428319
    z: 0.103117665541
wrench: 
  force: 
    x: -0.167081741603
    y: 1.26528144913
    z: 0.928582556603
  torque: 
    x: 0.0415598644763
    y: 0.123366244549
    z: 0.181994035881
valid: True
---
header: 
  seq: 184413
  stamp: 
    secs: 1565825428
    nsecs: 558989998
  frame_id: ''
pose: 
  position: 
    x: 0.625823719185
    y: -0.0243471068603
    z: 0.413537525042
  orientation: 
    x: 0.185904316173
    y: 0.687110747095
    z: 0.18304808408
    w: 0.678094245197
twist: 
  linear: 
    x: 0.0441839166022
    y: 0.0448697538845
    z: -0.0369669145492
  angular: 
    x: 9.87493858389e-06
    y: -0.0214781100826
    z: 0.101100747666
wrench: 
  force: 
    x: 0.236482476835
    y: 1.21881870714
    z: 0.560909412814
  torque: 
    x: 0.109761145471
    y: -0.0875855698754
    z: 0.149791148932
valid: True
---
header: 
  seq: 184414
  stamp: 
    secs: 1565825428
    nsecs: 568961778
  frame_id: ''
pose: 
  position: 
    x: 0.625404877043
    y: -0.0239163361893
    z: 0.413426668399
  orientation: 
    x: 0.186453168753
    y: 0.686952002521
    z: 0.183108516769
    w: 0.678088071847
twist: 
  linear: 
    x: 0.0424969191286
    y: 0.0354792424523
    z: -0.0410748979422
  angular: 
    x: 0.0373192774775
    y: -0.00807765344866
    z: 0.07656040723
wrench: 
  force: 
    x: -0.238420467145
    y: 0.902099944047
    z: -0.179031755322
  torque: 
    x: -0.0541242612296
    y: -0.0644470997687
    z: 0.263470676402
valid: True
---
header: 
  seq: 184415
  stamp: 
    secs: 1565825428
    nsecs: 578947949
  frame_id: ''
pose: 
  position: 
    x: 0.624933565245
    y: -0.023469419999
    z: 0.413272104756
  orientation: 
    x: 0.186650638532
    y: 0.68692907917
    z: 0.183205157199
    w: 0.67803086191
twist: 
  linear: 
    x: 0.0370636651374
    y: 0.0323321341078
    z: -0.0442545267849
  angular: 
    x: 0.0368746604247
    y: -0.0247608197028
    z: 0.0750726778489
wrench: 
  force: 
    x: -1.32614749822
    y: 0.678997484079
    z: 0.154144618392
  torque: 
    x: -0.041485202239
    y: 0.249485272965
    z: 0.339598355999
valid: True
---
header: 
  seq: 184416
  stamp: 
    secs: 1565825428
    nsecs: 588986893
  frame_id: ''
pose: 
  position: 
    x: 0.624393177781
    y: -0.0231098425809
    z: 0.413092691828
  orientation: 
    x: 0.186896598927
    y: 0.686960355974
    z: 0.183080032956
    w: 0.677965214566
twist: 
  linear: 
    x: 0.0367300966419
    y: 0.0286805047335
    z: -0.0475286037653
  angular: 
    x: 0.0290794533373
    y: 0.00190667386445
    z: 0.0295303115965
wrench: 
  force: 
    x: -0.356576002079
    y: -0.164696686644
    z: -0.110742400905
  torque: 
    x: -0.228028928881
    y: -0.187756809985
    z: 0.388402247084
valid: True
---
header: 
  seq: 184417
  stamp: 
    secs: 1565825428
    nsecs: 598960917
  frame_id: ''
pose: 
  position: 
    x: 0.623907630867
    y: -0.0227357862178
    z: 0.412863623499
  orientation: 
    x: 0.187097938552
    y: 0.68696165092
    z: 0.182989450226
    w: 0.677932823118
twist: 
  linear: 
    x: 0.0350778390415
    y: 0.0204267083592
    z: -0.0514292739312
  angular: 
    x: 0.0527080894766
    y: -0.0071966936358
    z: 0.0253232033203
wrench: 
  force: 
    x: -0.952964255868
    y: -0.384850951281
    z: -0.184064154488
  torque: 
    x: -0.301352469702
    y: -0.0540489913411
    z: 0.415003252246
valid: True
---
header: 
  seq: 184418
  stamp: 
    secs: 1565825428
    nsecs: 608968006
  frame_id: ''
pose: 
  position: 
    x: 0.623356897028
    y: -0.022413456784
    z: 0.412700505314
  orientation: 
    x: 0.18707232045
    y: 0.687008380171
    z: 0.182849349056
    w: 0.677930341589
twist: 
  linear: 
    x: 0.0309518767944
    y: 0.018245095755
    z: -0.05420697604
  angular: 
    x: 0.0406692073231
    y: -0.0165798946777
    z: 0.0139786973244
wrench: 
  force: 
    x: -1.37623744941
    y: -0.277060625923
    z: 0.4791163829
  torque: 
    x: -0.230719449333
    y: 0.214594885875
    z: 0.41212834553
valid: True
---
header: 
  seq: 184419
  stamp: 
    secs: 1565825428
    nsecs: 618949931
  frame_id: ''
pose: 
  position: 
    x: 0.622706067626
    y: -0.0222798194818
    z: 0.412563966527
  orientation: 
    x: 0.187064090884
    y: 0.687068668809
    z: 0.182447581821
    w: 0.677979756431
twist: 
  linear: 
    x: 0.0270070057213
    y: 0.0140868928266
    z: -0.0580054938615
  angular: 
    x: 0.0326849301551
    y: 0.00205874850912
    z: -0.0359294834444
wrench: 
  force: 
    x: -0.32763793423
    y: -1.05797090829
    z: 0.126329150603
  torque: 
    x: -0.331794657038
    y: -0.26530748333
    z: 0.2591149954
valid: True
---
header: 
  seq: 184420
  stamp: 
    secs: 1565825428
    nsecs: 628962812
  frame_id: ''
pose: 
  position: 
    x: 0.62213223466
    y: -0.0220474413993
    z: 0.412500693291
  orientation: 
    x: 0.18685144285
    y: 0.68700862177
    z: 0.182295025617
    w: 0.678140262449
twist: 
  linear: 
    x: 0.0227155105178
    y: 0.0106634955255
    z: -0.0595463124141
  angular: 
    x: 0.0166873673916
    y: -0.00952529816301
    z: -0.0569457344783
wrench: 
  force: 
    x: -0.336274347544
    y: -0.609496359612
    z: -0.629305144397
  torque: 
    x: -0.243989267568
    y: -0.238809965299
    z: 0.319845053454
valid: True
---
header: 
  seq: 184421
  stamp: 
    secs: 1565825428
    nsecs: 638968052
  frame_id: ''
pose: 
  position: 
    x: 0.621500656751
    y: -0.0219275136286
    z: 0.412421639241
  orientation: 
    x: 0.186803116732
    y: 0.686950263075
    z: 0.182026063986
    w: 0.678284928087
twist: 
  linear: 
    x: 0.0166442640812
    y: 0.00928287497216
    z: -0.0602560310661
  angular: 
    x: 0.0115924413215
    y: -0.0340719439083
    z: -0.0490418904986
wrench: 
  force: 
    x: -0.726442154326
    y: -0.102473687413
    z: -1.04929099752
  torque: 
    x: -0.260178566091
    y: -0.0104128567983
    z: 0.455534374416
valid: True
---
header: 
  seq: 184422
  stamp: 
    secs: 1565825428
    nsecs: 648962054
  frame_id: ''
pose: 
  position: 
    x: 0.620842607291
    y: -0.0217143875287
    z: 0.41233211335
  orientation: 
    x: 0.186419161288
    y: 0.686969054911
    z: 0.181864871252
    w: 0.678414756991
twist: 
  linear: 
    x: 0.0148850900307
    y: 0.00885529067964
    z: -0.0640326341605
  angular: 
    x: 0.0012843041893
    y: -0.0246758833424
    z: -0.077271186431
wrench: 
  force: 
    x: -0.0123669059919
    y: -0.179544963032
    z: -1.69697892997
  torque: 
    x: -0.275969052296
    y: -0.252587687813
    z: 0.473037955246
valid: True
---
header: 
  seq: 184423
  stamp: 
    secs: 1565825428
    nsecs: 658961723
  frame_id: ''
pose: 
  position: 
    x: 0.620209625796
    y: -0.0215280642374
    z: 0.412300784665
  orientation: 
    x: 0.186092751024
    y: 0.686862200656
    z: 0.18173039507
    w: 0.678648560622
twist: 
  linear: 
    x: 0.0165733686255
    y: 0.0143420351494
    z: -0.0653964280264
  angular: 
    x: -0.0399434748045
    y: -0.0194469325019
    z: -0.0755777474196
wrench: 
  force: 
    x: 0.182140086969
    y: -0.241365357489
    z: -0.695331338268
  torque: 
    x: -0.175791954745
    y: -0.237395335872
    z: 0.426737114538
valid: True
---
header: 
  seq: 184424
  stamp: 
    secs: 1565825428
    nsecs: 668961263
  frame_id: ''
pose: 
  position: 
    x: 0.619656505904
    y: -0.0211299473343
    z: 0.412229677649
  orientation: 
    x: 0.18560926646
    y: 0.686783759537
    z: 0.18190281114
    w: 0.678814138878
twist: 
  linear: 
    x: 0.0199147991291
    y: 0.0179147120491
    z: -0.0624289779114
  angular: 
    x: -0.0541781775498
    y: -0.0221534551669
    z: -0.0570589060343
wrench: 
  force: 
    x: 0.362354594604
    y: 0.49284350089
    z: -0.254569326225
  torque: 
    x: -0.11433261754
    y: -0.161754159826
    z: 0.394257253732
valid: True
---
header: 
  seq: 184425
  stamp: 
    secs: 1565825428
    nsecs: 678959555
  frame_id: ''
pose: 
  position: 
    x: 0.619074549915
    y: -0.0208474609241
    z: 0.412196911541
  orientation: 
    x: 0.185165099061
    y: 0.686683766219
    z: 0.181978388343
    w: 0.679016316061
twist: 
  linear: 
    x: 0.0202475504972
    y: 0.0263672953109
    z: -0.0583202035279
  angular: 
    x: -0.0907196876507
    y: -0.019428759306
    z: -0.0583018897775
wrench: 
  force: 
    x: 0.677476744787
    y: 0.700135298574
    z: 0.0474706170157
  torque: 
    x: -0.0118542953134
    y: -0.276182560237
    z: 0.40641484921
valid: True
---
header: 
  seq: 184426
  stamp: 
    secs: 1565825428
    nsecs: 688948345
  frame_id: ''
pose: 
  position: 
    x: 0.618565849222
    y: -0.0203602957308
    z: 0.412195975437
  orientation: 
    x: 0.184705574433
    y: 0.686459855909
    z: 0.182307356307
    w: 0.679279577814
twist: 
  linear: 
    x: 0.0199442871375
    y: 0.0334873327101
    z: -0.0537076281649
  angular: 
    x: -0.114746190378
    y: -0.0349471338801
    z: -0.0373014820974
wrench: 
  force: 
    x: 0.601929862526
    y: 0.925470527086
    z: 0.350430272495
  torque: 
    x: 0.0677763563149
    y: -0.0641160523164
    z: 0.391051347709
valid: True
---
header: 
  seq: 184427
  stamp: 
    secs: 1565825428
    nsecs: 698949165
  frame_id: ''
pose: 
  position: 
    x: 0.618122514766
    y: -0.0198427123116
    z: 0.412267769028
  orientation: 
    x: 0.184082381588
    y: 0.686250971161
    z: 0.182654478059
    w: 0.679566496389
twist: 
  linear: 
    x: 0.0200309578762
    y: 0.0419042112339
    z: -0.0483604534653
  angular: 
    x: -0.13054494429
    y: -0.0412297268227
    z: -0.0267882122912
wrench: 
  force: 
    x: 0.891626012469
    y: 1.31118835701
    z: -0.0553299372024
  torque: 
    x: 0.102056826597
    y: -0.150800134635
    z: 0.400625943407
valid: True
---
header: 
  seq: 184428
  stamp: 
    secs: 1565825428
    nsecs: 708984284
  frame_id: ''
pose: 
  position: 
    x: 0.617794733893
    y: -0.0192113986621
    z: 0.412263233282
  orientation: 
    x: 0.183560999937
    y: 0.686047599546
    z: 0.183100556946
    w: 0.679792789389
twist: 
  linear: 
    x: 0.0264019712069
    y: 0.0515027716764
    z: -0.0389220978329
  angular: 
    x: -0.154458727873
    y: -0.0225268574275
    z: -0.0319324521117
wrench: 
  force: 
    x: 1.82861924796
    y: 0.947978020405
    z: -0.490626185347
  torque: 
    x: 0.10998056475
    y: -0.445494969198
    z: 0.443776245473
valid: True
---
header: 
  seq: 184429
  stamp: 
    secs: 1565825428
    nsecs: 718950412
  frame_id: ''
pose: 
  position: 
    x: 0.617526616224
    y: -0.0185451559567
    z: 0.412311868995
  orientation: 
    x: 0.183241981098
    y: 0.685709983485
    z: 0.183618328608
    w: 0.680079777902
twist: 
  linear: 
    x: 0.0273946339884
    y: 0.0563674701226
    z: -0.03273745602
  angular: 
    x: -0.143240834347
    y: -0.0437553549663
    z: 0.00838868774565
wrench: 
  force: 
    x: 1.44942527389
    y: 1.141886751
    z: -0.190718607111
  torque: 
    x: 0.131484814401
    y: -0.148302658339
    z: 0.47565415292
valid: True
---
header: 
  seq: 184430
  stamp: 
    secs: 1565825428
    nsecs: 728964204
  frame_id: ''
pose: 
  position: 
    x: 0.617295091993
    y: -0.017761770046
    z: 0.412217249539
  orientation: 
    x: 0.183016815857
    y: 0.68557533309
    z: 0.184143499825
    w: 0.68013416268
twist: 
  linear: 
    x: 0.0327952389931
    y: 0.0590985952971
    z: -0.0267460371386
  angular: 
    x: -0.121672444024
    y: -0.0411659969477
    z: 0.0268428144827
wrench: 
  force: 
    x: 0.865691854835
    y: 1.89154145579
    z: -0.104974265394
  torque: 
    x: 0.338137833846
    y: 0.0370264544263
    z: 0.375561304667
valid: True
---
header: 
  seq: 184431
  stamp: 
    secs: 1565825428
    nsecs: 738963731
  frame_id: ''
pose: 
  position: 
    x: 0.617132577654
    y: -0.0170527095763
    z: 0.412143521177
  orientation: 
    x: 0.183010809499
    y: 0.685460206803
    z: 0.184367990985
    w: 0.680190996998
twist: 
  linear: 
    x: 0.0417782232023
    y: 0.0591470089534
    z: -0.0236114217359
  angular: 
    x: -0.0838817159428
    y: -0.00443659148442
    z: 0.025859252617
wrench: 
  force: 
    x: 1.29702841728
    y: 1.57492864216
    z: 0.51171770216
  torque: 
    x: 0.341283175293
    y: -0.133453931598
    z: 0.287825906813
valid: True
---
header: 
  seq: 184432
  stamp: 
    secs: 1565825428
    nsecs: 748967286
  frame_id: ''
pose: 
  position: 
    x: 0.616974093969
    y: -0.0163864264682
    z: 0.412084164047
  orientation: 
    x: 0.183205876718
    y: 0.68526959301
    z: 0.184676651471
    w: 0.680246812586
twist: 
  linear: 
    x: 0.0432727622036
    y: 0.0560681873679
    z: -0.0176837215689
  angular: 
    x: -0.0361758943452
    y: -0.0123480270824
    z: 0.0464048219599
wrench: 
  force: 
    x: 0.58158739329
    y: 0.681460046579
    z: 1.45377734242
  torque: 
    x: 0.167533762502
    y: 0.0405443642165
    z: 0.391014414906
valid: True
---
header: 
  seq: 184433
  stamp: 
    secs: 1565825428
    nsecs: 758965971
  frame_id: ''
pose: 
  position: 
    x: 0.616823095246
    y: -0.0157363938251
    z: 0.411950408551
  orientation: 
    x: 0.183218318058
    y: 0.685265470809
    z: 0.184783023228
    w: 0.680218727155
twist: 
  linear: 
    x: 0.0406625219374
    y: 0.0545138323348
    z: -0.0153249509477
  angular: 
    x: -0.0275312265811
    y: -0.0215492049362
    z: 0.0508875864526
wrench: 
  force: 
    x: 0.0381634849166
    y: 0.678561604604
    z: 1.23967338238
  torque: 
    x: 0.110276620084
    y: 0.169382505723
    z: 0.446352901775
valid: True
---
header: 
  seq: 184434
  stamp: 
    secs: 1565825428
    nsecs: 768965544
  frame_id: ''
pose: 
  position: 
    x: 0.616732760397
    y: -0.0150652489907
    z: 0.411849557719
  orientation: 
    x: 0.183321618488
    y: 0.685258911043
    z: 0.184855906984
    w: 0.680177699343
twist: 
  linear: 
    x: 0.0437003947816
    y: 0.054256195434
    z: -0.0106262868123
  angular: 
    x: -0.0157075621201
    y: -0.000391689253784
    z: 0.0346027856556
wrench: 
  force: 
    x: -0.170252021751
    y: 0.963393883078
    z: 0.529765057714
  torque: 
    x: 0.179599853876
    y: 0.082435336019
    z: 0.443520010164
valid: True
---
header: 
  seq: 184435
  stamp: 
    secs: 1565825428
    nsecs: 778962726
  frame_id: ''
pose: 
  position: 
    x: 0.61659512839
    y: -0.0145030674174
    z: 0.411736982256
  orientation: 
    x: 0.183744326953
    y: 0.685226862539
    z: 0.184808201968
    w: 0.680108886615
twist: 
  linear: 
    x: 0.0413088751973
    y: 0.0485458357819
    z: -0.0108161044337
  angular: 
    x: 0.0309487460298
    y: 0.00116099515237
    z: 0.0305179664156
wrench: 
  force: 
    x: -0.033461797359
    y: 0.189917610721
    z: 0.960360609
  torque: 
    x: 0.0395596237346
    y: -0.00456363447856
    z: 0.516107131351
valid: True
---
header: 
  seq: 184436
  stamp: 
    secs: 1565825428
    nsecs: 788964238
  frame_id: ''
pose: 
  position: 
    x: 0.616554518249
    y: -0.0139899375703
    z: 0.41160429528
  orientation: 
    x: 0.183997309678
    y: 0.685262355223
    z: 0.184665109943
    w: 0.680043595452
twist: 
  linear: 
    x: 0.0403546766343
    y: 0.0415459226927
    z: -0.00884808643714
  angular: 
    x: 0.0595297063141
    y: -0.000302087334744
    z: 0.0262453865445
wrench: 
  force: 
    x: -0.56316951847
    y: 0.418092212718
    z: 1.11235430882
  torque: 
    x: 0.0987226605794
    y: 0.174448778497
    z: 0.45007346303
valid: True
---
header: 
  seq: 184437
  stamp: 
    secs: 1565825428
    nsecs: 798964211
  frame_id: ''
pose: 
  position: 
    x: 0.616533539501
    y: -0.0134718267717
    z: 0.411547418391
  orientation: 
    x: 0.184228756192
    y: 0.685293846212
    z: 0.184449919152
    w: 0.680007600738
twist: 
  linear: 
    x: 0.0377388367773
    y: 0.0403790457498
    z: -0.0047553457165
  angular: 
    x: 0.0626492974732
    y: 0.00175932855224
    z: 0.0133423065178
wrench: 
  force: 
    x: -0.339506535883
    y: 0.908210509173
    z: 0.599056120703
  torque: 
    x: 0.158331243073
    y: 0.124262429
    z: 0.462028312311
valid: True
---
header: 
  seq: 184438
  stamp: 
    secs: 1565825428
    nsecs: 808980827
  frame_id: ''
pose: 
  position: 
    x: 0.616422704486
    y: -0.0130213163071
    z: 0.411452335646
  orientation: 
    x: 0.184449701904
    y: 0.68540545687
    z: 0.184122154869
    w: 0.679924039321
twist: 
  linear: 
    x: 0.0324685976882
    y: 0.0359724515332
    z: -0.00585970682899
  angular: 
    x: 0.0839931651965
    y: -0.00363176816499
    z: 0.0110331643348
wrench: 
  force: 
    x: -0.0295286442866
    y: 0.943214608892
    z: -0.109637251372
  torque: 
    x: 0.0927042461077
    y: 0.0182818870623
    z: 0.533647852294
valid: True
---
header: 
  seq: 184439
  stamp: 
    secs: 1565825428
    nsecs: 818966048
  frame_id: ''
pose: 
  position: 
    x: 0.616309189257
    y: -0.0126005845181
    z: 0.411291101204
  orientation: 
    x: 0.184831526956
    y: 0.68547915487
    z: 0.183829091087
    w: 0.679825345329
twist: 
  linear: 
    x: 0.0276050620284
    y: 0.0344582469493
    z: -0.00981863749307
  angular: 
    x: 0.0833731025387
    y: -0.0100650836347
    z: -0.000884561009652
wrench: 
  force: 
    x: 0.051968764222
