%time,field.header.seq,field.header.stamp,field.header.frame_id,field.pose.position.x,field.pose.position.y,field.pose.position.z,field.pose.orientation.x,field.pose.orientation.y,field.pose.orientation.z,field.pose.orientation.w,field.twist.linear.x,field.twist.linear.y,field.twist.linear.z,field.twist.angular.x,field.twist.angular.y,field.twist.angular.z,field.wrench.force.x,field.wrench.force.y,field.wrench.force.z,field.wrench.torque.x,field.wrench.torque.y,field.wrench.torque.z,field.valid
1565825439508991413,185508,1565825439508991413,,0.574099348262,-0.0218900488538,0.400388097924,0.0180180200268,0.708001019536,0.0189627243439,0.705726804349,-0.00071734840742,0.0391357683263,0.0199581119091,-0.00490922072565,-0.0169161663914,0.0278068519721,-2.86013007022,1.3535752942,-0.655916528426,0.103877822924,0.382990290223,0.399351834741,1
1565825439518963282,185509,1565825439518963282,,0.574373634803,-0.0214717237049,0.400479829447,0.0178538924302,0.707943241001,0.0190788202969,0.705785806504,-0.00683945733128,0.0363190107439,0.0231499111738,-0.00813888817961,-0.010474771698,0.000850555635475,-1.94520148036,1.08952076588,0.842735322445,0.133882453817,0.330922710347,0.259008127474,1
1565825439528971116,185510,1565825439528971116,,0.57477950686,-0.0211154895354,0.400614294505,0.0177997906551,0.707868291192,0.0190577266355,0.705862913626,-0.00938335365308,0.0392508752152,0.0317066378713,-0.0267680035221,-0.0169735873891,-0.0110010666832,-1.53483957046,1.14550052152,1.06551596191,0.114224069857,0.242235180624,0.335819807974,1
1565825439538956314,185511,1565825439538956314,,0.575230887895,-0.020721387068,0.40070154768,0.0176945755569,0.707866838478,0.0190533143579,0.705867134942,-0.0138522682181,0.0393743425996,0.0421167462961,-0.00926165605355,-0.0191832095778,-0.0169531242783,-0.393153056083,0.618849427642,1.4747043183,-0.106024172525,0.00947014319485,0.467231619092,1
1565825439548969398,185512,1565825439548969398,,0.575804675629,-0.0202674841241,0.400915286329,0.0174876145958,0.707716007094,0.0191519332872,0.706020849615,-0.0153631735392,0.0392428353503,0.0508496762036,-0.0225120742891,-0.0283627074983,-0.0166711350761,0.407505166075,0.220412737182,2.4181257174,-0.0450463735658,0.0764171832306,0.374098189317,1
1565825439558972646,185513,1565825439558972646,,0.576436136722,-0.0199416172923,0.401074960657,0.0175055135265,0.707700064385,0.0189625231088,0.706041499194,-0.0142037036983,0.0402086391314,0.0596313221365,-0.0110775661244,-0.0197583855777,-0.0189869791884,0.608009246554,0.448470278297,2.0843588201,-0.0664921979788,0.0376890556818,0.312935459994,1
1565825439568965716,185514,1565825439568965716,,0.577138112299,-0.0194860697554,0.401242905225,0.0171567892759,0.707682451454,0.01899270072,0.706066901791,-0.0150749788794,0.0394555093718,0.0656380167406,-0.00357153600722,-0.00913019697856,-0.0266184126871,0.312062411148,0.443854324118,2.59611051269,-0.0978804403015,0.0614517940565,0.37714847515,1
1565825439578965751,185515,1565825439578965751,,0.57788563415,-0.0191633697206,0.401425866007,0.0171783857728,0.707653428589,0.0188046142335,0.706100498903,-0.0137354335229,0.0435439142083,0.0712929350273,-0.0258414679407,-0.0031189664391,-0.0370445870766,0.766923827023,0.603144871005,2.87049724485,0.0387571805797,0.0226419867375,0.272759967137,1
1565825439588965384,185516,1565825439588965384,,0.578690894618,-0.018728468011,0.401543104993,0.0172226046329,0.707617386329,0.0187197535347,0.706137796243,-0.0145783016899,0.0389876201523,0.0773992080087,0.0163870923512,-0.00901565249454,-0.0237000526396,1.25466786444,0.510600940436,2.52461577582,-0.0508383283011,0.0341873805915,0.188682676111,1
1565825439598985241,185517,1565825439598985241,,0.579456068694,-0.0182913041781,0.401633338238,0.0169308841965,0.70770608866,0.0186080587298,0.706058905039,-0.0127797437139,0.0409417018001,0.0795606197317,0.00556787283642,-0.00730149555909,-0.0286902897745,1.00129287367,0.723255021676,2.46146816596,0.0456708199478,0.215393613445,0.368386458784,1
1565825439608984688,185518,1565825439608984688,,0.580210962998,-0.0180116134422,0.401716975712,0.016946986595,0.707893070896,0.0182152848014,0.705881295419,-0.0063772409272,0.039033748561,0.0773409359772,0.00868986732808,0.0345272395889,-0.0534497014221,1.76404308126,0.836295782467,1.5986894025,0.0872767261728,-0.144822593712,0.41586697584,1
1565825439618952522,185519,1565825439618952522,,0.580975395307,-0.0175707385921,0.401728906952,0.0168500030901,0.708003581874,0.0181022716456,0.705775681935,-0.00471166872269,0.0362716217422,0.0772258207947,0.0398024836779,0.0441896295032,-0.0457740704997,1.20696442832,0.766947502084,1.59213330933,-0.00881797081713,-0.051749226434,0.407231788472,1
1565825439628979452,185520,1565825439628979452,,0.58170549235,-0.017180188777,0.401736120639,0.0168986818754,0.708199651813,0.0179347383096,0.705582052553,-0.00149592270829,0.0394734818052,0.072578541974,0.0102121823139,0.0357091416937,-0.033021733963,0.198357630956,1.21886278574,1.14199542824,0.25696613128,0.259099652595,0.508426995416,1
1565825439638984052,185521,1565825439638984052,,0.582385842723,-0.0168320289327,0.40168631611,0.0169937592047,0.708461568369,0.0176119505336,0.705324916255,0.00458630538271,0.0363491308833,0.0719677735311,0.0563467371937,0.0667400487515,-0.0171696471277,0.310863495462,0.898093137333,0.323486266829,0.164364387512,0.111951356105,0.418556933242,1
1565825439648954337,185522,1565825439648954337,,0.582995473255,-0.0164511673872,0.401595478491,0.017019143811,0.708738627529,0.0174712432503,0.705049404121,0.00505722703149,0.0377171061098,0.0672910180591,0.031880844477,0.063998753641,-0.023628370315,-0.392020392547,1.6160820093,-0.549515486831,0.396841577198,0.330024575126,0.437169210196,1
1565825439658955617,185523,1565825439658955617,,0.583593525588,-0.0161704141884,0.401596388059,0.0172518401546,0.708980039077,0.0171461387528,0.704808972792,0.00475248682146,0.0328158465456,0.0608454921739,0.0504715020377,0.0671599127561,-0.0195379837621,-0.172796345111,1.02112749797,-1.04080303067,0.291418982663,0.141426688582,0.577384441671,1
1565825439668963031,185524,1565825439668963031,,0.58412619231,-0.0158227119727,0.401542372541,0.0174579400809,0.709127781743,0.0171158197699,0.704655985714,0.00540324270319,0.0312939780673,0.0590059771419,0.0658964786986,0.0665752394784,-0.00243895487241,0.165972468659,1.44776668219,-1.37872907967,0.157924678125,0.0589654735577,0.659619962048,1
1565825439678982396,185525,1565825439678982396,,0.584699495336,-0.0154503068963,0.401522116719,0.0174567173823,0.709244253572,0.0171330521347,0.704538366818,0.00320007483353,0.0358573511589,0.0550022321479,0.0111312276983,0.0378591692818,0.00692195332661,-0.0564092380512,2.14243133549,-0.815574336348,0.298136704194,0.22574674962,0.672219605827,1
1565825439688969119,185526,1565825439688969119,,0.585277617316,-0.0151226407485,0.401425372304,0.0176492054194,0.709461270812,0.0170786569855,0.704316356648,0.0068478311809,0.0361260860325,0.0564446945858,0.0132393975232,0.0470846080633,0.00447063655447,0.365303646399,1.41744301825,-0.526483417277,0.2305145179,0.0763633361872,0.511912028273,1
1565825439698961995,185527,1565825439698961995,,0.585878984079,-0.0146970824964,0.401410171941,0.0175755031188,0.709489317257,0.0172244609819,0.704286396526,0.00764145232234,0.0363391054509,0.0585239435609,0.020641621737,0.0413076879999,0.0222800527839,0.443529403356,0.165181392818,1.08468690155,0.00910678052355,0.178470189745,0.541281508342,1
1565825439708982720,185528,1565825439708982720,,0.586582451715,-0.0143270638593,0.401345243523,0.0175329059239,0.709590976956,0.0173835446273,0.704181123724,0.00597547863494,0.0374127345647,0.0627638268034,-0.0298293434056,0.0232215300576,0.0121551989693,0.243576620134,-0.333195058439,2.53757316006,0.0458602559724,0.301692634778,0.482069857164,1
1565825439718949864,185529,1565825439718949864,,0.587317800298,-0.0141247904866,0.401371285295,0.0176510207008,0.709677205277,0.0172597223726,0.704094317376,0.00335348509673,0.0331248585987,0.0717338211099,-0.0146119638255,0.0292390163272,-0.00346650419965,0.237386271473,-0.166038790914,2.31578740587,-0.0170002629924,0.188477839514,0.503434397451,1
1565825439728963179,185530,1565825439728963179,,0.588133130916,-0.0137792225474,0.401385930191,0.0174332323801,0.709681329596,0.0173317618128,0.704093816806,-9.99063441081e-05,0.0299835489432,0.078291945524,-0.00174988995757,0.0152643090083,-0.00793596351683,0.317585524524,0.0332447179181,1.95596335834,-0.126648568425,0.134388053276,0.671234480947,1
1565825439738991995,185531,1565825439738991995,,0.589075736935,-0.0134292485764,0.401378468123,0.0172795092979,0.709704115063,0.0174628939493,0.704071399047,-0.00272517441809,0.0309475656011,0.0843561361754,-0.0331910655784,-0.00238830893712,-0.00916743662089,0.191674141859,-0.110578820379,1.772412739,-0.163511692937,0.14190596993,0.767030765976,1
1565825439748969942,185532,1565825439748969942,,0.590026215345,-0.0131437643395,0.401465877261,0.0171233472464,0.709712558168,0.017541160914,0.704064757982,-0.00253543294889,0.0307222728016,0.0927999643981,-0.0275228189076,0.00774934008603,-0.0109985772762,0.334306924261,-0.478295247077,2.0028337362,-0.228424536626,0.0358078243964,0.652805322263,1
1565825439758962787,185533,1565825439758962787,,0.591075603052,-0.012769157704,0.40154127907,0.0169222327543,0.709654431648,0.0177562492356,0.70412281691,-0.00519925029667,0.0312608495343,0.0995763335792,-0.0377613126027,-0.0026355459346,-0.00773084449969,0.163004009048,-0.224967176079,2.17778725801,-0.162971042171,0.198063991626,0.587895069225,1
1565825439768956081,185534,1565825439768956081,,0.592086665926,-0.0125428350156,0.401564376264,0.01679823385,0.709734589466,0.0177124819815,0.704046092125,-0.00642497784145,0.0318957467726,0.103245371061,-0.0399452005033,-0.00697173540775,-0.00450082851822,0.328492719233,-0.261199316757,2.77635424023,-0.219372020413,0.323442450257,0.516867288458,1
1565825439778961284,185535,1565825439778961284,,0.593133478419,-0.0121948530557,0.401537687413,0.0166109125583,0.709907953344,0.0177457142857,0.703874892994,-0.00224301180939,0.0293855502645,0.10372852511,-0.0269761503552,0.0297520770521,-0.0260205368974,0.870921839871,-0.268125943703,2.59126928226,-0.229508583694,0.0977051782133,0.534018869588,1
1565825439788988841,185536,1565825439788988841,,0.594166125658,-0.0118866312501,0.401572420833,0.0164079830587,0.710012344345,0.0178167980011,0.703772556071,-0.000837524234248,0.029457254619,0.105248032499,-0.023446257087,0.0410659330904,-0.0202763604557,0.84054725451,-0.282118886351,3.009311533,-0.335131756951,0.162540808292,0.693441468318,1
1565825439798969249,185537,1565825439798969249,,0.595249810426,-0.0116012109555,0.40162680482,0.0163515313118,0.710147299454,0.0178508342317,0.703636829777,-0.00191328833545,0.0304536139037,0.105982870026,-0.0287475276029,0.0366965711614,-0.0106025704235,0.379965578223,-0.493174529015,4.11061673453,-0.394367544544,0.337137675809,0.697029993347,1
1565825439808962635,185538,1565825439808962635,,0.596289924814,-0.0112558512121,0.401497496536,0.0163120354749,0.710451153882,0.0178827473743,0.703330137839,0.000282269051654,0.0321188274914,0.107893651961,-0.0122113047122,0.0491418150943,-0.00202549403747,0.209108904672,-0.701893480522,3.61912646443,-0.428063213831,0.260741736085,0.741294823704,1
1565825439818984406,185539,1565825439818984406,,0.597339561126,-0.0108858143886,0.401507414057,0.0162932066683,0.710596829584,0.0180176532969,0.703179949495,0.00541167647079,0.0346435972802,0.10681198009,-0.0144456853654,0.0675936089835,-0.00448638450471,-0.61777602829,-0.663620340684,2.85336465854,-0.393813335587,0.393013382855,0.855443229298,1
1565825439828983760,185540,1565825439828983760,,0.59841069166,-0.0104972248906,0.401512756239,0.0164409092663,0.710756438393,0.0180736569144,0.703013744326,0.000564688285525,0.0357937359902,0.107368424754,-0.0093122934077,0.0460577186522,0.0136759494041,-0.567608249614,-0.681624790808,2.07117369375,-0.302394799399,0.355747924243,0.852844322807,1
1565825439838975589,185541,1565825439838975589,,0.599458158831,-0.0101470786797,0.401509214629,0.016415905473,0.710935039364,0.018070637914,0.702833792513,0.000229162472836,0.0365476407241,0.105738934765,0.016657836383,0.0491405445472,0.0231010436526,-0.706653279204,-0.452151362014,1.60262752766,-0.193348941049,0.415335631843,0.708037543794,1
1565825439848960217,185542,1565825439848960217,,0.600457070423,-0.00980404096746,0.401435535181,0.0165427982109,0.711209837305,0.017958271603,0.702555623157,0.00189880020512,0.0353301285152,0.10240499905,0.00267755345692,0.0543406432836,0.00945949677926,-1.0129455024,-0.0140618833322,1.15309947916,-0.0310434716782,0.553331991274,0.807971611783,1
1565825439858961577,185543,1565825439858961577,,0.601443931907,-0.00948955199576,0.401393490445,0.0167510936108,0.711486306387,0.0177852345824,0.702275104299,0.00709013928373,0.0327234513865,0.101272630624,0.0397519610236,0.0778381131682,-0.00612106319889,-0.953240875957,0.0722192730015,-0.212791042464,-0.0721186761988,0.40413281356,0.969853055146,1
1565825439868986576,185544,1565825439868986576,,0.602383478377,-0.00920563772887,0.40133744098,0.0168392447725,0.711724546135,0.0176202694296,0.702035708757,0.00557893839756,0.0294038431333,0.097327395015,0.0568173755327,0.0783411813291,-0.0122683829863,-0.441485658725,-1.1695705796,0.101935665691,-0.229764515227,0.331068457056,0.922653760726,1
1565825439878988942,185545,1565825439878988942,,0.60329813918,-0.00887769290388,0.4012652576,0.017014439566,0.711939288289,0.0174865583728,0.70181705516,0.00336713188873,0.0296961782274,0.0936653705698,0.0351444674422,0.0591268909244,0.000289826142031,-0.143965052004,-1.54566498809,0.681063485737,-0.121280613339,0.354610819907,0.780958919947,1
1565825439888950781,185546,1565825439888950781,,0.604221860059,-0.00860616032874,0.401221091586,0.0170246661183,0.712162559393,0.0173096580659,0.701594630452,0.00406590040725,0.032539593119,0.0936863800659,0.0325289424686,0.0547089434778,-0.00390159451607,-0.159387867302,-1.51373926141,0.426024376437,-0.164263458189,0.288594284743,0.735170142654,1
1565825439898962195,185547,1565825439898962195,,0.605190567096,-0.00824869476707,0.40121675983,0.0169456201382,0.712357591317,0.017183146971,0.701401630674,0.00521186589311,0.0318521115335,0.095507835732,0.0240073986584,0.0652843297405,-0.0240052383973,-0.0951836228005,-0.568977604626,0.67763717932,-0.102517439416,0.174663830668,0.828058669574,1
1565825439908950901,185548,1565825439908950901,,0.606183766006,-0.00787007233507,0.401201503804,0.0168935140407,0.712423916255,0.0171636847143,0.701335996979,0.00257527399129,0.035461369735,0.0967483801593,0.00684013758165,0.0428093531356,-0.0238588912982,-0.777938982167,0.455764519327,0.823766052154,-0.0587646662014,0.35709251312,0.840448063506,1
1565825439918964336,185549,1565825439918964336,,0.607207911865,-0.00743168842431,0.401141983429,0.0168100720103,0.712577903852,0.0171735761464,0.701181303732,0.00103758442869,0.0395171935039,0.099569082428,-0.00492254505637,0.025471418284,-0.00511227507412,-0.80146001551,1.20051148187,0.43223302777,0.0770856292798,0.383519528611,0.756124340138,1
1565825439928953436,185550,1565825439928953436,,0.608277032803,-0.00688126692426,0.401135929487,0.0165768890557,0.712670589458,0.017304930019,0.701089421592,0.00276767603892,0.0461928557971,0.103281186509,-0.0226661454469,0.0356074705887,-0.0123545647133,-0.502631639106,1.34267471478,0.537593700664,0.0668974232709,0.202871824648,0.672013152894,1
1565825439938958073,185551,1565825439938958073,,0.609348943643,-0.00636678102421,0.401207601588,0.0164031176585,0.712692680378,0.0173850477927,0.701069070192,-0.00183230582772,0.0528216663044,0.108209177202,-0.0425389258561,0.0177693527899,-0.0170549913474,-0.864223233497,1.52928486271,0.434099998515,0.0445739539185,0.279948588348,0.766266088961,1
1565825439948966037,185552,1565825439948966037,,0.610482455747,-0.00572199774125,0.401324507967,0.0162384144438,0.712662848879,0.0176813810734,0.701095818335,-0.00508781047676,0.0562622336563,0.110447531691,-0.0393236567291,0.0108060939002,-0.00108692527961,-1.08027321931,1.52825074605,0.998340673792,-0.0289621040447,0.436352481975,0.689749822599,1
1565825439958963177,185553,1565825439958963177,,0.611577524912,-0.00514272870649,0.40139562193,0.0160461956751,0.712740257861,0.0178097584557,0.701018299998,-0.00641962404845,0.0627417139321,0.111444975131,-0.070286403572,0.00919225358547,-0.00679436740664,-0.385679519518,3.11955042413,0.390679480575,0.370485002016,0.344184418292,0.516621790566,1
1565825439968964309,185554,1565825439968964309,,0.612690973092,-0.00449886651083,0.401494246121,0.0158941472399,0.712764013254,0.0179879926136,0.700993059606,-0.00702565953229,0.0615725998213,0.110892253959,-0.0468367404648,0.0173997206083,-0.00423761171244,-0.333499471069,2.72494098787,0.859090436786,0.186713210058,0.355154009814,0.496364396291,1
1565825439978964816,185555,1565825439978964816,,0.613774504567,-0.00391633606235,0.401618220772,0.0157909128839,0.712802285098,0.018205098433,0.700950871189,-0.00974861339444,0.0590807194536,0.110525269892,-0.0258432061958,0.00871125289396,0.0202043825323,-0.27494491404,1.88696997021,1.53109619553,-0.0221197327586,0.445072799124,0.688130951599,1
1565825439988965804,185556,1565825439988965804,,0.614853048871,-0.00342738306582,0.401620595784,0.0158703893667,0.713008430266,0.0182445982204,0.700738356126,-0.00661529293618,0.0579551071616,0.108813116804,-0.0380439558814,0.0297355942288,0.0131130940155,0.422423432691,1.02892560145,1.87244635894,0.0249497244967,0.209633968277,0.524259136926,1
1565825439998968289,185557,1565825439998968289,,0.615837977558,-0.00291216205834,0.401642768584,0.0160135960221,0.713138470727,0.0184293052327,0.700597921079,-0.00384896001387,0.053408230287,0.106815490983,-0.008407564725,0.0417004004013,0.0233179888778,0.670609953363,0.186358736424,2.13780439438,-0.0465256172029,0.23704588018,0.522296891756,1
1565825440008967262,185558,1565825440008967262,,0.616859486006,-0.00250880439941,0.401658018214,0.0161888894093,0.713334166398,0.0184282196328,0.700394665621,-0.00474790883643,0.0480787995892,0.103310645565,0.0048830764281,0.0350043107458,0.0334530002308,0.519586841341,-0.70040898628,2.93689171809,-0.180586495398,0.366049059504,0.562916824598,1
1565825440018963995,185559,1565825440018963995,,0.617876422873,-0.00219407421699,0.401657356529,0.0163957266699,0.713565515839,0.0182421757744,0.700159023205,-0.00101975156402,0.0372358006552,0.101277950338,0.0361515117659,0.0630056672877,0.0160585483333,1.11489753096,-1.12165862878,2.56918797563,-0.131282736852,0.0885127331426,0.517893668399,1
1565825440028965656,185560,1565825440028965656,,0.618915338952,-0.00190796547841,0.401621018362,0.0169059369053,0.713729167589,0.0181822801019,0.699981620701,0.00185022306243,0.0315056867743,0.102221026183,0.0625903336571,0.0644439166134,0.0279038807457,0.329780132554,-1.49496049807,2.92471373287,-0.0996251959786,0.339535433774,0.587111958809,1
1565825440038965957,185561,1565825440038965957,,0.619907705985,-0.00169614311063,0.401592408354,0.0172626434057,0.713967932509,0.0178215100502,0.699738655692,0.000948420145914,0.0223505108591,0.0995807502256,0.101498228586,0.0502284998435,0.0425773705264,-0.250976677212,-2.06695856757,3.02041369414,-0.26897740072,0.534844983058,0.578150983985,1
1565825440048953533,185562,1565825440048953533,,0.620876339766,-0.00149792696363,0.401564314034,0.0175265950614,0.714187872244,0.0176244182914,0.699512602807,0.00201625104546,0.0180583385278,0.0979901212532,0.0999535683951,0.0631971143166,0.00762152827404,0.307623605694,-1.29381352934,2.07884994938,-0.110321863799,0.217106477947,0.530779829903,1
1565825440058952377,185563,1565825440058952377,,0.621871808591,-0.00134516028173,0.401527905589,0.0179431005198,0.714287826634,0.0174001318241,0.699405591398,0.00277230918026,0.0201235053285,0.0978658033031,0.0636381124164,0.0508310196508,0.00580525206745,0.110729748133,-0.222085661546,1.42845081791,0.0039661273348,0.239994620225,0.590111722103,1
1565825440068966099,185564,1565825440068966099,,0.622845214799,-0.00113290530476,0.401469150037,0.0183245218645,0.714436485327,0.0172645735791,0.699247205809,0.00202697889493,0.0178927675624,0.100510826066,0.0841772088508,0.0288435584632,0.039382110376,-0.57664855494,0.555744194441,0.643680278124,-0.0733182218402,0.478321936539,0.60747076118,1
1565825440078950534,185565,1565825440078950534,,0.623875996572,-0.000861379509624,0.401431757917,0.0182880220972,0.714565747392,0.0172832916018,0.699115604699,0.00240515300886,0.0227519838844,0.101912379228,0.049272784519,0.0367170969573,0.0146499526146,-0.0812445266801,1.44984030752,0.600501825972,0.178527226605,0.289877761861,0.486732280929,1
1565825440088954529,185566,1565825440088954529,,0.624979169569,-0.00053485370967,0.401407905568,0.0184102779659,0.71460711177,0.0172387604644,0.699071214262,0.00260362640975,0.0314059986557,0.104666808826,-0.00020381041197,0.0287508909825,0.00252765019461,0.325752941612,1.04294599594,0.700766043958,0.146974642465,0.158905171216,0.539099276301,1
1565825440098953625,185567,1565825440098953625,,0.626086061766,-0.000165357424187,0.401389375222,0.0183474413481,0.714686380326,0.0173173131575,0.698989885361,0.00288886208797,0.0358586418827,0.110681375069,0.00834988002207,0.0176585928466,0.0153474264246,0.21502641155,-0.401995571183,1.87740939994,-0.314721190707,0.235786960127,0.664351611324,1
1565825440108966494,185568,1565825440108966494,,0.627199325722,0.000273905314641,0.401255189441,0.0181449915098,0.714834536469,0.0174986094532,0.698839139875,0.00658760797038,0.0409076124783,0.113228268152,-0.0405541117624,0.0270283112519,-0.00770863072174,0.562392038405,-0.913119204446,2.32084090387,-0.216840137253,-0.00981450946044,0.616054596726,1
1565825440118963504,185569,1565825440118963504,,0.628479042926,0.00084992149871,0.401234492723,0.0179298499314,0.714802170196,0.0177276302042,0.698872026262,0.00667318649561,0.0451481995032,0.119071795519,-0.0428966767808,0.0238750256383,0.00121501989853,0.168587097435,-0.982460155812,2.35114874342,-0.308569884256,0.120312497739,0.582012004866,1
1565825440128954286,185570,1565825440128954286,,0.62966933786,0.00130619958765,0.401177202985,0.0176874774865,0.714907638555,0.0179489372965,0.698764665053,0.00305268931881,0.0510147202917,0.122929509407,-0.0571399437099,0.0102089865749,0.00183136821469,-0.254642255724,-0.733888959802,2.47872002744,-0.286346883254,0.304394982485,0.539615569615,1
1565825440138968757,185571,1565825440138968757,,0.630931352286,0.00178598897384,0.401174715501,0.0172545287288,0.715032273652,0.0180463093669,0.698645446269,0.00396679453297,0.050713087225,0.122633347336,-0.0819337321833,0.0344358596,-0.0294440569757,0.176900590209,-2.34098578523,3.12907338805,-0.437190048181,0.0103513632307,0.653548339871,1
1565825440148967808,185572,1565825440148967808,,0.632218193683,0.00222094734813,0.401164517729,0.0171225256648,0.71503334276,0.018270623914,0.698641769548,0.00128120913927,0.0433748634065,0.125105517209,-0.0499828368377,0.0287681725369,-0.0203779701611,-0.0812284221347,-2.59708623896,2.48685682941,-0.591029098107,0.0578728564871,0.752148556362,1
1565825440158952555,185573,1565825440158952555,,0.633353780751,0.00258106412401,0.401159160321,0.0169441675406,0.715200189434,0.0182843771641,0.698474957155,-0.00154742777191,0.0427561674245,0.12613746292,-0.0542198003242,0.0104373091814,-0.00566522938537,-0.0839115888054,-2.29144784405,1.63234876872,-0.576589100396,0.0955302564644,0.891282868406,1
1565825440168961378,185574,1565825440168961378,,0.634576990823,0.00298374109312,0.401181329833,0.016760372475,0.715270010862,0.018435080411,0.69840392989,-0.000604194383952,0.0381348411492,0.120272543258,-0.0359102336227,0.0371592655854,-0.0145765101822,0.0133664355691,-2.270527836,1.98150237648,-0.536931103323,0.00424986488993,0.832356819125,1
1565825440178956535,185575,1565825440178956535,,0.63567360291,0.00332114070029,0.401142794562,0.0167012393515,0.715415596182,0.0186080604818,0.698251626155,-0.00031084402685,0.0373742523296,0.116451680509,-0.0406498546303,0.0351254503818,-0.00381011799775,-0.85780612594,-1.81659749232,1.64271486946,-0.450005906492,0.229003607477,0.925737640266,1
1565825440188980766,185576,1565825440188980766,,0.636868436633,0.00362418095539,0.401236114741,0.0168591431302,0.715433898306,0.0187049222453,0.698226490712,-0.00304255059768,0.0325853530911,0.115565923659,-0.0109628030154,0.0239044471642,0.0205732425529,-1.43411757549,-1.53630032451,0.314267044013,-0.371399980184,0.30459313415,0.87694806807,1
1565825440198962382,185577,1565825440198962382,,0.63793668729,0.00391716355937,0.401285994111,0.0168587838542,0.71547381435,0.0188137030981,0.698182674493,-0.0100329785231,0.0307346670294,0.114377563133,-0.00458072624021,0.00752435044799,0.0270482616094,-1.14018965326,-1.38969365874,-0.112604681907,-0.263669862874,0.331145278174,0.767945957618,1
1565825440208962396,185578,1565825440208962396,,0.638915565528,0.0041753123545,0.401369264196,0.0170234063281,0.71557506711,0.0187731867793,0.698075994736,-0.00901283984325,0.0286903061153,0.105685570825,-0.00627562982119,0.0137482605767,0.0148240194545,-1.14388945181,-0.783087289814,-0.0748287683567,-0.0995286583459,0.484323329793,0.644315951031,1
1565825440218966417,185579,1565825440218966417,,0.639922772213,0.00439327285766,0.401337609537,0.0172174458554,0.715755511531,0.0186177129983,0.697890383967,-0.00726616507042,0.023052390963,0.100166021978,0.0381215909625,0.0336282555155,0.00340770718889,-0.702268020578,-0.588110284553,-0.227231085618,-0.0986680970298,0.423164775323,0.745910786534,1
1565825440228971584,185580,1565825440228971584,,0.640913449954,0.00459222506167,0.401436969709,0.0173402554102,0.71580658621,0.0185814716369,0.697835923117,-0.00638326635257,0.0191741725382,0.0974199388009,0.0446144474897,0.0339304062533,0.00704887716911,-0.133114825973,-0.91647540899,-0.140914319164,-0.110475993601,0.333566371687,0.778209495479,1
1565825440238954216,185581,1565825440238954216,,0.641852937376,0.00482230594136,0.401488796539,0.0174832960764,0.715889563551,0.0185582795444,0.697747846588,-0.00671171499944,0.0205234856686,0.0964931379584,0.0265987337656,0.0235917437365,0.0170648220833,-0.308492002565,-1.14981220127,1.61894878257,-0.137143072057,0.524749824271,0.613995336257,1
1565825440248969110,185582,1565825440248969110,,0.642811164854,0.00509112752162,0.401449537522,0.0174582972318,0.716008294449,0.018505882641,0.697628025846,-0.00398157499477,0.0235705296016,0.0965600360945,0.0174771251669,0.0250719018839,0.00407383272778,0.628414623968,-1.36195011938,2.05176058346,-0.0830144651513,0.350824084099,0.430823808971,1
1565825440258961953,185583,1565825440258961953,,0.643798242176,0.00530456470511,0.401518882586,0.0173421855493,0.71604716526,0.0184392082556,0.697592790475,-0.00234514702083,0.0262579585868,0.0963896970548,-0.00545715449661,0.022274694324,-0.0143302728626,0.218306426585,-1.87795151376,3.27340709619,-0.243916069639,0.489839566921,0.514050328413,1
1565825440268963794,185584,1565825440268963794,,0.64478628183,0.00553574799195,0.401438038398,0.0172286903954,0.716219792632,0.0183446781935,0.697420858343,-0.000265517690473,0.0235833799261,0.100072385944,0.00375594042593,0.0338559371459,-0.0246922121336,0.319844843119,-2.19539038033,3.08316218152,-0.338404238094,0.280154840424,0.60960262276,1
1565825440278965790,185585,1565825440278965790,,0.645887539316,0.0058419080041,0.401436825454,0.0171798952049,0.716204735786,0.0185524302193,0.697432028926,0.000660786892915,0.0219508904025,0.103182366915,-0.0116346869605,0.0293175212091,-0.0183069924183,0.0231083808198,-1.60253749451,3.15839208815,-0.199130022866,0.315594109735,0.513017206923,1
1565825440288964024,185586,1565825440288964024,,0.646965139968,0.00608747614618,0.401382356773,0.0171982587572,0.716303540371,0.0185988907552,0.697328860159,-0.00164846732414,0.0284343552664,0.108022227148,-0.0260496306816,0.00437610154741,0.0117914618489,-0.488474952777,-1.60131673043,4.35968225037,-0.262348672234,0.619892857542,0.501288993547,1
1565825440298955348,185587,1565825440298955348,,0.648097266761,0.00636515885929,0.40139551855,0.0169604503114,0.716380691769,0.0186488145159,0.697254092353,0.000584129796588,0.0283181544536,0.112441080303,-0.0184109010073,0.0253675871648,-0.000848158408292,0.918698533793,-2.08638036732,3.70257420831,-0.32854707722,0.0881960225571,0.524250487251,1
1565825440308960958,185588,1565825440308960958,,0.649216653785,0.00665572160041,0.401405560161,0.0171354878763,0.716344342104,0.0188874059712,0.697280735777,0.00104466542764,0.0303891683685,0.114945348903,-0.0382927795806,0.0160634234307,0.0089327698446,0.681078607045,-2.12149692235,3.43762028627,-0.281014706953,0.133718566477,0.550762313808,1
1565825440318957120,185589,1565825440318957120,,0.65038867423,0.00693965932379,0.401370123852,0.017257875709,0.716441695793,0.0190405824158,0.697173521066,-0.0024476654299,0.0283667031068,0.115446294999,-0.00675483811517,0.00346590403827,0.0427672903593,0.14258227321,-2.01502743766,4.01208050723,-0.373676032857,0.393378126934,0.444957925046,1
1565825440328961880,185590,1565825440328961880,,0.651474346774,0.00726525367695,0.401335430939,0.0171100622308,0.716546879435,0.0191846118716,0.697065108875,0.00310509865034,0.0280039095174,0.112353946277,-0.021706157363,0.0287765943859,0.0209966001133,0.0731441461223,-1.21149361413,3.4894946035,-0.153319538115,0.292759593713,0.374887139794,1
1565825440338965430,185591,1565825440338965430,,0.652601052344,0.00752990861959,0.401320216876,0.0173061891749,0.716640098148,0.0191752669849,0.696964686824,-0.000763961143673,0.0279411349047,0.110734485899,-0.00989391110081,0.0251206341363,0.0209432611918,0.0890589313641,-1.00923115098,2.94468652714,-0.246126195896,0.260756565757,0.499318817617,1
1565825440348966758,185592,1565825440348966758,,0.65361277484,0.00782262329024,0.401276563803,0.0173091341587,0.716791409611,0.0192657291951,0.696806501592,-0.0023987795552,0.0266933134018,0.109702259188,0.0127255199831,0.0305405757384,0.00804784861291,0.0123449838242,-0.87114466892,1.92682791715,-0.301034642616,0.172069154193,0.681786586845,1
1565825440358961620,185593,1565825440358961620,,0.654694068475,0.00817209699197,0.401274756285,0.0175532350754,0.716862426457,0.0193706095194,0.696724425407,0.00230897404972,0.0281283886616,0.103338157136,0.00026541713864,0.0400043389334,0.0198182588973,-0.748920199512,-0.393141164574,1.36911308247,-0.167208058909,0.271858221565,0.649627569135,1
1565825440368961414,185594,1565825440368961414,,0.655664074035,0.00852145994221,0.401231425936,0.0176712728475,0.717023543949,0.0195019980074,0.69655196189,-0.000346478159307,0.0335523320043,0.10429422186,0.0234086914231,0.0276232702862,0.0512251029252,-0.617035867415,0.385697671382,0.555105424939,-0.110961280895,0.260238438785,0.498262291157,1
1565825440378972528,185595,1565825440378972528,,0.656660134519,0.00891402021823,0.401237628848,0.017723834981,0.717103260796,0.0194992841818,0.696468633138,0.00222656190585,0.0383845634817,0.0991535789654,-0.00782582421419,0.0402396482477,0.0179804870372,-1.01219893602,1.38747469952,-0.820610547125,0.136088912687,0.375923833363,0.536651175547,1
1565825440388979087,185596,1565825440388979087,,0.657578850301,0.00932408046997,0.40112853722,0.0178059487208,0.717355785091,0.0194120914131,0.696208874185,0.00140918916493,0.0396664051182,0.0976573039655,0.0163433569285,0.03507833108,0.0194776873774,-0.802700814024,-0.34681372285,-1.02582060598,-0.112586417417,0.158722838068,0.628860643458,1
1565825440398958309,185597,1565825440398958309,,0.658520097616,0.00975005228223,0.401082330486,0.0177972476145,0.717466001481,0.0195105396268,0.696092762166,0.00413284563614,0.0397389853362,0.0943678673933,0.0167966194026,0.0514622178109,0.00184986843192,-0.407246248845,-1.64244507414,0.0636260067159,-0.228927466333,0.100980452016,0.640182260572,1
1565825440409000761,185598,1565825440409000761,,0.659475170505,0.0101415746297,0.401153031243,0.0180215541893,0.717521634377,0.0193720220951,0.696033513952,0.000905749326125,0.0421804437969,0.0944786343637,-0.000622867625289,0.0291090503171,0.00561798134197,-0.483534037718,-1.50867720725,0.763413394787,-0.0252950891875,0.24950414538,0.591072825222,1
1565825440418985371,185599,1565825440418985371,,0.660397368258,0.0106006763216,0.401082544808,0.0181755053011,0.717647399061,0.0192794261173,0.695902410799,-0.000752075161301,0.0413270754911,0.0944767235741,0.0517510221273,0.0300224401278,0.00359609943445,-0.188711702946,-1.72043856981,0.131979217026,-0.195000313414,0.138405274172,0.690729176538,1
1565825440428964084,185600,1565825440428964084,,0.661334498689,0.0111065483726,0.401098243243,0.0180752665966,0.717727922687,0.0191978007155,0.695824229371,-0.000972230761884,0.0509409456729,0.0965523754308,0.0133862111821,0.0171082765453,0.00208375764435,-0.534418975458,-1.31863116443,0.467457819725,-0.134358165288,0.324495034777,0.807374366197,1
1565825440438986414,185601,1565825440438986414,,0.662351155986,0.01162542707,0.401052448897,0.0183186253606,0.717766386408,0.0192711118666,0.695776161387,0.00146603166676,0.0514741669414,0.0967971684592,0.0057572080785,0.0213741412688,-0.000332881220395,-0.454338479554,-1.03884275794,0.804793700097,-0.0692449935615,0.205475475772,0.597996487482,1
1565825440448960579,185602,1565825440448960579,,0.663330461797,0.0121332422645,0.401144518948,0.0183496341238,0.717684073819,0.0194176834996,0.695856173847,-0.000745073945614,0.050844549651,0.1000902645,0.0112069912429,0.00242179620657,0.0340129412362,-0.877112193466,-0.610511461134,1.01175501587,-0.0392302035775,0.455829867646,0.46188792622,1
1565825440458950700,185603,1565825440458950700,,0.664335401114,0.0127922112579,0.40109869753,0.018236313877,0.717779782352,0.019522688691,0.695757490458,-0.00343912419508,0.0574983496719,0.100167282138,-0.0260136775135,-0.00924715703644,0.0202695856056,-1.25965774497,-0.000307236717535,1.23111739636,-0.0299052756964,0.613963223294,0.630899770774,1
1565825440468957406,185604,1565825440468957406,,0.665320733001,0.0133405238873,0.401102241744,0.0182250824404,0.717857623151,0.0195965495475,0.695675394491,0.000306828025515,0.0592690182947,0.0995219199497,-0.0152398118596,0.0269902142611,-0.00188571839004,-1.32298522562,1.06179563481,0.734479571935,0.00158164224472,0.409074419668,0.631215702458,1
1565825440478955483,185605,1565825440478955483,,0.666330881147,0.0139616595673,0.401203399511,0.018332138807,0.717801473804,0.0199349985272,0.695720901458,-0.000815387154543,0.0609008845561,0.0988402518983,-0.0263702231796,0.0154317499052,0.0212063740915,-1.84157617642,1.02578999984,2.38737244555,-0.028241967391,0.720766300234,0.709378921834,1
1565825440488982617,185606,1565825440488982617,,0.66733975688,0.0146686328423,0.40116064864,0.0183992844417,0.717874201071,0.0202716108492,0.695634357664,-0.00360890525773,0.0618844288093,0.099883398742,-0.0238896505311,0.00211089432756,0.0549373166486,-1.52455464836,0.208810453817,2.94048117197,-0.152133451183,0.720425351591,0.595341418574,1
1565825440498950745,185607,1565825440498950745,,0.668302834686,0.0152872038428,0.401275345067,0.0183782006012,0.71788424456,0.0204122538622,0.695620437485,-0.00440535326993,0.0643173816786,0.100530509627,-0.0283549113395,0.00600297487193,0.0525938099235,-0.977962387994,-0.346430128024,3.26916529214,-0.216104462711,0.631848746353,0.505606385691,1
1565825440508963695,185608,1565825440508963695,,0.669226348155,0.0158283154091,0.401263073696,0.0186076576307,0.718018794536,0.020449372228,0.695474362537,-0.00445768215366,0.0635298968977,0.0962487381341,-0.0208870868669,0.0221094921728,0.0262306322363,-0.917171002057,-0.109294248945,2.15661047868,-0.212093978706,0.525072906989,0.614251497536,1
1565825440518955566,185609,1565825440518955566,,0.670109506889,0.0164528705311,0.401350856532,0.0187606079575,0.718100982774,0.0206722572837,0.6953788003,-0.00377710708644,0.0589540049618,0.0910750091372,0.0146084982087,0.0317767902932,0.041491303037,-0.809655814784,0.220976599534,1.86157490865,-0.280030801701,0.477246416227,0.623771997935,1
1565825440528982076,185610,1565825440528982076,,0.670947855594,0.0169803388043,0.401392697724,0.0189246418704,0.718215181805,0.0207615914212,0.6952537428,-0.00566641098159,0.0586986572403,0.087553260064,0.0033993728257,0.0296974125107,0.0388685768438,-0.730096159353,0.51437280673,2.62227281666,-0.139423580485,0.563621603621,0.597379109388,1
1565825440538984811,185611,1565825440538984811,,0.671780243727,0.0175712912837,0.401397781553,0.0191413311514,0.718423367853,0.0206435277006,0.695036199581,-0.00472111149041,0.0564396921899,0.0854645987912,0.0219298363821,0.0394302133225,0.0270198574594,-0.174188023349,0.295302773314,1.87326115421,-0.182422587666,0.368361489353,0.591989987988,1
1565825440548991950,185612,1565825440548991950,,0.672545170182,0.018088406237,0.401362206178,0.0194434128927,0.718582632877,0.0206133633412,0.69486404618,-5.82973344361e-05,0.0563584837492,0.0815373494856,0.0432988805056,0.0490173048457,0.0296214936672,0.0365374875232,0.563818376526,0.448070710515,-0.186706050545,0.3416906979,0.680495028258,1
1565825440558950622,185613,1565825440558950622,,0.673269853698,0.0186443345856,0.40139946715,0.0196447213812,0.718755939016,0.0204836224536,0.694682953773,-0.00148702405151,0.0587952743621,0.0765366471443,0.0321901434362,0.0391527291308,0.0333950444323,0.213471535961,0.735428323425,0.169084111712,-0.0280415902899,0.335470409598,0.674372177822,1
1565825440568953023,185614,1565825440568953023,,0.67395434463,0.0192635612152,0.401344947093,0.019786280976,0.718968440148,0.0204103298917,0.694461160606,0.00149048958494,0.0573864558139,0.0717693450054,0.0486003052317,0.0563587460245,0.0215715888207,0.428992645235,2.3605556438,0.330987123146,0.251311178657,0.318912408992,0.357015487797,1
1565825440578990172,185615,1565825440578990172,,0.674647246047,0.0198531709641,0.401313289018,0.0199759036756,0.719147069152,0.0202888688905,0.694274310342,0.00290725861884,0.0578808269627,0.0687349757888,0.041049521222,0.0559984148517,-0.00136362181549,0.0167531897006,3.22868237403,0.75208289913,0.431278952311,0.511817801797,0.370278676414,1
1565825440588963054,185616,1565825440588963054,,0.675329673779,0.0203848546766,0.401313722405,0.0201674938048,0.719356319153,0.019896157111,0.69406332652,0.00384415038816,0.0539780444604,0.0685237746044,0.0623761123506,0.05482241918,-0.0123878423299,-0.540733074571,2.79677611904,-0.101754024871,0.344450200969,0.511493835213,0.617158231438,1
1565825440598956247,185617,1565825440598956247,,0.675926385821,0.0208056236327,0.401322778051,0.0204985592559,0.719501345974,0.0195971271228,0.693911791814,0.00197083662143,0.0469827311104,0.0639012743853,0.0982605259839,0.0582110683087,-0.0118103985064,-0.0516362414721,1.23220296626,0.079759834058,0.0414959247118,0.334476603806,0.827585090082,1
1565825440608985330,185618,1565825440608985330,,0.676502159497,0.0212241319203,0.401263286699,0.0208674096153,0.719628123291,0.0195163616231,0.693771595709,-0.000525752743755,0.0469568171554,0.060657617851,0.0632965796936,0.0298606281231,0.018550034077,-0.62636613055,1.00239819985,1.16393003336,0.164760910918,0.644900420391,0.73250631851,1
1565825440618966480,185619,1565825440618966480,,0.677120260604,0.0216126464849,0.401310101605,0.021248063491,0.71969426031,0.0192833164967,0.693697949528,0.00103779267225,0.0432538214218,0.0610004292167,0.0667487091525,0.0253711238188,0.0220005335377,0.132894099394,0.530556807757,0.672967240032,-0.0177097405349,0.402401976307,0.814532601594,1
1565825440628966725,185620,1565825440628966725,,0.677697128182,0.0219668083583,0.401283890605,0.0213503590245,0.71973696292,0.0191901932981,0.69365308538,-0.00103045730253,0.0392896934852,0.062569064189,0.0637295614451,0.0206767093981,0.0105103433357,0.378479134132,-0.395497857602,0.931694347468,-0.155015001818,0.248451548918,0.807448710805,1
1565825440638966318,185621,1565825440638966318,,0.678291582451,0.0222851681946,0.401355246424,0.0216550115124,0.719661646229,0.0193172949854,0.693718255157,-0.00207132854841,0.0346570122431,0.057034614563,0.0222876333054,-0.00378296135518,0.0328577088331,-0.0611486417342,-0.829394619722,1.39679136126,-0.128911812959,0.452791769017,0.794687538907,1
1565825440648986396,185622,1565825440648986396,,0.678801057012,0.0224126166756,0.401326653402,0.0219413263192,0.719712573092,0.0192915632864,0.693657138591,-0.00202268250965,0.0248983951735,0.0557489190864,0.0392002245,-0.000858820236846,0.0560069220049,-0.0238337540081,-1.00975403733,1.75283638582,-0.18045945567,0.405469018785,0.61840037439,1
1565825440658985452,185623,1565825440658985452,,0.679356405501,0.0225868869686,0.401306014307,0.0220785336142,0.719720509505,0.0194040793131,0.693641411867,-0.0013906459597,0.0139348897249,0.0520201850813,0.0338965990347,0.00700476446969,0.0304170094819,-0.183052486589,-1.00970002206,2.29478816884,-0.193061929077,0.405524019562,0.694673968854,1
1565825440668965510,185624,1565825440668965510,,0.679884084087,0.0226402126523,0.401388927289,0.0221885666274,0.719684667018,0.0193513781887,0.693676561325,-0.00459388310426,0.0109728162858,0.0540712216589,0.0132026271961,-0.00319762599923,0.0194051043161,-0.244183503435,-1.26127990377,1.83222426016,-0.345465244714,0.32340776381,0.995827603965,1
1565825440678966487,185625,1565825440678966487,,0.680399200542,0.0227307689734,0.401408798767,0.0223621739985,0.71961227689,0.0196059125697,0.693738936716,-0.00537724517717,0.0102263381416,0.0553650987566,0.00747566362528,-0.0112853078856,0.0421266078549,0.205041327016,-1.65097383714,1.18255475161,-0.546356180986,0.205561217545,1.11280375452,1
1565825440688963525,185626,1565825440688963525,,0.680950419688,0.0229897631218,0.401469331658,0.0223219848574,0.719508083107,0.0200429930222,0.693835806057,-0.00509513930844,0.0151675644959,0.0527190594266,-0.0371871244828,-0.0240711255962,0.0577459900336,0.629828116334,-1.34290660538,2.38957321085,-0.316411433061,0.159627309237,0.816550148072,1
1565825440698987766,185627,1565825440698987766,,0.681481762353,0.0232208299011,0.401450909956,0.0223250050531,0.719424705449,0.0203932399689,0.693911956305,-0.00452261138696,0.0211434802264,0.0524488936254,-0.0493994533045,-0.0242141104068,0.0548563411749,0.377616694631,-1.14668910872,2.84921042245,-0.270017240817,0.248261402581,0.589383816754,1
1565825440708969940,185628,1565825440708969940,,0.682023971745,0.0235275682871,0.401457240718,0.0220793835977,0.719348354835,0.0207583825182,0.693988137342,-0.00370917717525,0.0280692298753,0.0542967234253,-0.0771169954588,-0.02939959651,0.031032821041,0.354717842286,-1.02591615927,2.31295937998,-0.277852610799,0.250660616307,0.811043701703,1
1565825440718964974,185629,1565825440718964974,,0.68255814404,0.023902899045,0.401523711608,0.0218098603441,0.719239030257,0.0211718069288,0.694097472938,-0.00344162324002,0.0326834409962,0.0539207742693,-0.0901479569065,-0.0227546540176,0.0113582885219,0.0680884663842,-1.07682304355,1.64551949083,-0.366004409983,0.241182082913,0.852572410398,1
1565825440728954850,185630,1565825440728954850,,0.683039415012,0.0243852677047,0.401541382881,0.0213686228391,0.719168138503,0.0214923406374,0.694174797737,-0.00642301511109,0.0398315903836,0.0530323659826,-0.104518549617,-0.0290503246893,-0.00186148293985,-0.127970033152,-0.588485727477,1.46876321513,-0.266380693559,0.361284766019,0.77382796495,1
1565825440738978367,185631,1565825440738978367,,0.683553638973,0.0248817896441,0.401575275692,0.0210199395701,0.719140022702,0.0217288844337,0.694207206438,-0.00313731509543,0.0489415580832,0.0489998019507,-0.103790733677,-0.0180669161296,-0.0066326810072,-0.588464522581,0.347005213053,0.81110915546,-0.177663300207,0.479095633816,0.829410000417,1
1565825440748986123,185632,1565825440748986123,,0.684025829789,0.0255524933526,0.401581143849,0.0206122810574,0.719098320513,0.0221667637293,0.69424878386,-0.000850373953772,0.057613052494,0.0492766918989,-0.0937429860989,-0.00459205427473,-0.0174147919628,-0.429256305846,0.64658977078,-0.00319550458714,-0.137261641147,0.300641404064,0.802677376699,1
1565825440758956999,185633,1565825440758956999,,0.684505927406,0.0262436965212,0.401645706592,0.0205358084519,0.719032928192,0.0226809214615,0.694302170923,0.00142859878405,0.0662223504199,0.0478225399224,-0.107009227739,-0.00699094556329,0.0161750153989,-0.272055404561,0.101437453751,0.387876637209,-0.145491615238,0.358561000168,0.859317498053,1
1565825440768966242,185634,1565825440768966242,,0.684917235023,0.0269948958775,0.401618757761,0.0203313668486,0.719105515942,0.0229475167773,0.694224246146,0.00243798586818,0.0716269351223,0.0450953639407,-0.0847750266533,-0.000610471838171,0.0488658283647,-0.519964325063,0.867524514674,0.109661870402,-0.103665823481,0.422280321204,0.735319121972,1
1565825440778971114,185635,1565825440778971114,,0.685277701682,0.0278038988282,0.401553439724,0.0201611867181,0.719184630543,0.0233559619816,0.694133627467,0.0048372910335,0.0739991636533,0.0410103317724,-0.0663057769823,0.0217098533013,0.0239584858032,-0.389403218169,1.3452426564,0.371647254979,-0.000784596411578,0.411958108472,0.681366273081,1
1565825440788971101,185636,1565825440788971101,,0.685649938752,0.0285088455135,0.401471317528,0.0202366959785,0.719321684937,0.0235108172758,0.693984172144,0.00649281018345,0.0768968914108,0.0380899762522,-0.0500259773855,0.0265478173026,0.0241649345146,-0.131971999275,1.5466008644,0.0644872664812,0.0245909782665,0.336163867807,0.727105105372,1
1565825440798954829,185637,1565825440798954829,,0.686010972215,0.0292861209008,0.401445533143,0.0202086457203,0.719427084586,0.0236521569523,0.693870921767,0.00543022820822,0.0735071298825,0.0386262582647,-0.0145216549129,0.03185139963,0.0220407761851,-0.260082677381,1.96698710707,-0.25239710225,-0.0203468452732,0.339845034615,0.81139566994,1
1565825440808987845,185638,1565825440808987845,,0.686359061709,0.029881384538,0.401383278188,0.0205416824827,0.719557172702,0.0236629790634,0.693725866546,0.00851378582844,0.0716431160401,0.0344724839792,-0.0152229079001,0.0358107364092,0.0282457979609,-0.77253824774,1.90935751476,-0.0422113798214,0.0890072093334,0.507028338111,0.827574292263,1
1565825440818990131,185639,1565825440818990131,,0.686596321449,0.0304876494851,0.401267961645,0.0209598238369,0.719767020158,0.0235673915034,0.693498882865,0.0107394330505,0.0626698237417,0.031814110191,0.0473918813287,0.0426726827853,0.0505917193066,-0.622754681387,1.53022641053,0.537904451161,-0.00966676866744,0.485616899634,0.605778106104,1
1565825440828955379,185640,1565825440828955379,,0.686912351808,0.0310327754112,0.401171216031,0.0211226698467,0.719965216199,0.0233944871794,0.693294034485,0.0114270129891,0.0584772040528,0.0296589707343,0.0643617763234,0.0485280829728,0.0384941726041,-0.739824652576,0.839313442393,1.20788821991,-0.0576397309408,0.547502435091,0.635136369952,1
1565825440838962661,185641,1565825440838962661,,0.687156796881,0.0314043004072,0.401044739316,0.0216343960299,0.720201344329,0.0230514514473,0.693044448157,0.0124367504339,0.0446835714484,0.0274375574361,0.0836335511048,0.065338785387,-0.00198096190734,-0.086159933016,-0.0625901121231,0.480899242655,-0.257278569573,0.183396489695,0.872862741911,1
1565825440848970007,185642,1565825440848970007,,0.687390255653,0.0315560676154,0.400997194892,0.0223140178776,0.720298472119,0.0227083342781,0.692933277613,0.00987108709866,0.0307740346326,0.0257316456895,0.124671744676,0.0501000957904,0.0302651339928,-0.452940738719,-0.536969033306,1.41261537765,-0.321921095982,0.486614429379,0.816313724988,1
1565825440858950727,185643,1565825440858950727,,0.687622326135,0.0316819522978,0.400832620821,0.0229285843276,0.720606870527,0.0221599473917,0.692610247471,0.00795837585988,0.0185128614805,0.0239785166141,0.14235012325,0.0406133986485,0.0394594475003,-0.861814246787,-0.271482426762,1.99877152456,-0.237171884592,0.729747455013,0.675998000442,1
1565825440868988961,185644,1565825440868988961,,0.687807481722,0.0317018155986,0.4007249616,0.0234744633461,0.72081453105,0.0216376836723,0.692392354119,0.0128235857263,0.00728764087451,0.0219091431269,0.162920791363,0.0750554457803,0.00430087162279,-0.174094655863,-0.859094769361,1.23220994381,-0.308217307843,0.190601817203,0.793803297878,1
1565825440878992855,185645,1565825440878992855,,0.687985587451,0.0315514462224,0.400613572089,0.0242159530901,0.720957843339,0.0211641807721,0.692232224904,0.00720843115049,-0.00395398262933,0.0192665127178,0.157137503497,0.0438634441839,0.0167968802773,-1.37791092054,-1.96651950067,2.90038030555,-0.439758254262,0.78231657244,1.07699194072,1
1565825440888948109,185646,1565825440888948109,,0.688184950261,0.0313520874404,0.400585604683,0.0248792317466,0.721078696455,0.0206636151096,0.692097935524,0.00668270664253,-0.016659201007,0.0204841540053,0.186833610376,0.0337164837765,0.0471877016639,-0.588439107245,-2.31177890222,2.59207925402,-0.514859478516,0.496371852309,0.842309189894,1
1565825440898961940,185647,1565825440898961940,,0.688406316248,0.0312137099921,0.400499898306,0.0252285901222,0.721120761063,0.020437866079,0.692048162944,0.00565849875544,-0.0188382070612,0.0201388432668,0.130283554151,0.0316187115185,0.0190671699567,-0.0322458461313,-1.6760549082,2.98257775101,-0.254320538175,0.362550697059,0.766097534119,1
1565825440908961300,185648,1565825440908961300,,0.688559293409,0.0310442806577,0.400501457002,0.0254943150619,0.721085888261,0.0202755283147,0.692079536327,0.000963107100999,-0.0154372468519,0.0194754108306,0.0769960227397,-0.0031770010327,0.0197410410533,-0.688554414073,-1.09461667933,2.84849140967,-0.342686469937,0.603871617637,0.821815453287,1
1565825440918952862,185649,1565825440918952862,,0.688746756986,0.0310267601763,0.40052558871,0.025295558543,0.720955509827,0.0204305976425,0.692218085756,-0.00379452719922,-0.0119844292482,0.0193314330946,0.0274442577989,-0.0230874373759,0.00756049635398,-0.545424058216,-0.990993837476,1.96680816013,-0.36589204649,0.379986823601,0.943241839061,1
1565825440928961449,185650,1565825440928961449,,0.688977574786,0.0310349758142,0.400593205335,0.0252484357995,0.720738399635,0.0207502279254,0.692436353626,-0.00786459828214,-0.00241547633218,0.0194831104813,-0.0512723702761,-0.0482996062141,0.00628558892734,-1.01894689823,-0.283322686183,2.50021522001,-0.228290566175,0.535793644201,0.898854191204,1
1565825440938960765,185651,1565825440938960765,,0.689210510267,0.0311979554357,0.400698551728,0.0250562214392,0.720441024453,0.0212199798516,0.692738499369,-0.00701725061273,0.0089163242,0.0216370109602,-0.0766263197068,-0.0659733006981,0.0336034452205,-0.779482037433,0.517618825487,2.67107771406,-0.12048519044,0.619499873471,0.648526513348,1
1565825440948957894,185652,1565825440948957894,,0.689433383019,0.0314779389386,0.400793561568,0.0245606584915,0.720223085972,0.0216460639887,0.692969644646,-0.0077331490805,0.0193728332353,0.0217916008174,-0.109226452954,-0.0705754893376,0.0190322211273,-1.26887140958,0.620956719364,2.36562004789,-0.109372955301,0.719084545685,0.803520029328,1
1565825440958947423,185653,1565825440958947423,,0.689646443025,0.0318125061497,0.400849033361,0.0243993403522,0.720042270164,0.0220715106859,0.693149803278,-0.00809449531442,0.0290181177521,0.0222581468152,-0.106714009165,-0.0540237166897,0.00116239507864,-1.23517434905,0.297384333915,1.25323163953,-0.235867298873,0.496633796012,0.858064791672,1
1565825440968953300,185654,1565825440968953300,,0.689879231959,0.0323032309042,0.401012679733,0.0240372832409,0.719788253065,0.022593866256,0.693409400694,-0.00812442107381,0.0389002693605,0.0219574273889,-0.10839733326,-0.0569410433921,0.0236650222713,-1.495525133,0.524613232374,1.0126392572,-0.131156981737,0.659830044663,0.834591316923,1
1565825440978976522,185655,1565825440978976522,,0.690078605844,0.0327993578196,0.401040744623,0.0238996675276,0.719670959637,0.022990394493,0.693522860119,-0.010252080058,0.049433024179,0.0208357391561,-0.117370474256,-0.062806942541,0.0327486473962,-1.22692597267,1.17737658983,1.08570312068,0.0735028147028,0.779483827869,0.614905088475,1
1565825440988948738,185656,1565825440988948738,,0.690245149367,0.0334118077061,0.4010956194,0.0234819886368,0.719650523589,0.0232395812406,0.693550028456,-0.0030410008842,0.053741139809,0.0197516574519,-0.0828411095308,-0.0216581120225,0.00592956383526,-0.899878089195,0.730395919868,0.177814836589,-0.0863956961648,0.557703592167,0.699823841234,1
1565825440998948000,185657,1565825440998948000,,0.690390306732,0.0340854155329,0.401222288288,0.0230940469069,0.719503522369,0.0237267917693,0.693699059858,-0.00412631250657,0.0592147131039,0.0138375462847,-0.0985872484641,-0.0102704632234,-0.0196454947009,-0.681533807808,0.644649140316,-0.0142789156413,-0.0789393001301,0.40070725082,0.816971301497,1
1565825441008970372,185658,1565825441008970372,,0.690466152805,0.0346307560534,0.401245005413,0.0230761465279,0.719460896139,0.0239958975419,0.693734608687,-0.0066921277751,0.0637281844754,0.0115369838745,-0.0975226364857,-0.0278460555569,0.0140200709948,-1.00712721447,1.24214263831,1.37050485633,0.00970612093222,0.638978179474,0.766600753544,1
1565825441018960261,185659,1565825441018960261,,0.690584752671,0.0352659348733,0.401298080112,0.0228396694293,0.719478573341,0.0242159379533,0.693716455299,-0.000116128467474,0.0607797961019,0.0110551757159,-0.0583353850029,-0.0086539040625,0.0263392732212,-0.956185142699,1.11318991992,1.79761529672,-0.0356129094211,0.776784226143,0.776744654349,1
1565825441028949630,185660,1565825441028949630,,0.690635369167,0.0358217363115,0.401270677105,0.0228454417904,0.719543929034,0.0243501521662,0.693643777503,0.000680348843628,0.0627026457328,0.0103976596077,-0.0559007652105,0.00318389244233,0.0133798861065,-0.864634447591,-1.56485871579,2.41218106588,-0.244416057221,0.626055715887,0.824378481584,1
1565825441038949323,185661,1565825441038949323,,0.690728541109,0.0363880374064,0.40127811754,0.0228622778375,0.719605640235,0.0244444968233,0.69357588292,0.00286445833588,0.0579359331437,0.0081658449432,-0.020787432334,0.0189291406785,0.0109437982526,-0.442311232387,-2.39597940608,1.62031500224,-0.370886536383,0.499069125996,0.906240943391,1
1565825441048986466,185662,1565825441048986466,,0.690770227361,0.0368506705247,0.401210044763,0.0229868346509,0.719756556578,0.0244554129116,0.693414765833,0.00388313391438,0.0518021987395,0.00614355985249,0.00806196713234,0.0285483486626,0.0152933752294,-0.233592029592,-2.17572152138,1.39541976882,-0.352578303578,0.499603584035,0.946586441222,1
1565825441058987692,185663,1565825441058987692,,0.690742684181,0.0373553041965,0.401132991079,0.0231399451332,0.719956005858,0.0243804177583,0.693205227763,0.0113785890152,0.0472493441699,0.00245248915561,0.0178510527684,0.0487295564343,0.0130092480334,-0.400880111603,-0.715466195899,1.68784362685,-0.211231477976,0.664359652131,0.893723626999,1
1565825441068966461,185664,1565825441068966461,,0.69081369833,0.037858874263,0.400942891628,0.0234078032944,0.720188692504,0.0243001395057,0.692957303991,0.0108460735517,0.048544101181,0.00299223712424,0.0446485931467,0.0508259740471,0.0236445154339,-0.407398765955,0.40299559448,2.62640362533,-0.152027420471,0.581979624862,0.798517115688,1
1565825441078986488,185665,1565825441078986488,,0.690893725629,0.0384668116969,0.400854450759,0.023657628311,0.720312800825,0.0243648653745,0.692817536531,0.0197501268404,0.0507965860807,0.00521288809285,0.0491472375976,0.0591697124971,0.0324374649404,-0.721876397876,0.909946084924,3.26509117662,-0.100188777079,0.65635102889,0.77151253253,1
1565825441088953767,185666,1565825441088953767,,0.690969082097,0.039007839237,0.400745335998,0.0242394935684,0.72043517462,0.0243320753719,0.692671319047,0.0146211993591,0.0589151797502,0.00877420272617,0.03495728373,0.0363348775205,0.0530491628867,-0.656517322004,1.86753278575,3.11373910867,0.149505027049,0.607873742583,0.517469691303,1
1565825441098985037,185667,1565825441098985037,,0.69106288185,0.0396842178058,0.400625579086,0.0244263327823,0.720537691319,0.0244361675103,0.692554447949,0.0155561943285,0.0596085720036,0.0108059955153,0.0631044945946,0.0377423708499,0.0624588265547,-0.31570715227,2.1082101979,2.37884405646,0.154303470606,0.461189402127,0.359265622468,1
1565825441108984981,185668,1565825441108984981,,0.691206365005,0.0404304509116,0.400565071827,0.0245761101662,0.720582916739,0.024550647562,0.692498043764,0.0122062346394,0.0690094413888,0.0110590388942,0.00790964945646,0.0185609849267,0.041720291831,-1.02369718131,2.62333149573,1.37867961553,0.272989770148,0.749795529215,0.548629925477,1
1565825441118976258,185669,1565825441118976258,,0.691303463028,0.0410719167917,0.400424711082,0.0249738694819,0.720747423471,0.0244369312985,0.692316613835,0.0127338542069,0.0676187473957,0.0132873748229,0.0417875860658,0.0267333660268,0.0398726768213,-0.928224340002,2.61864467427,0.518280267486,0.125078518814,0.630312467156,0.64793028211,1
1565825441128955554,185670,1565825441128955554,,0.691465936074,0.0417923398246,0.400317256193,0.0251758141228,0.720806919559,0.0245801557129,0.692242283485,0.0152279075257,0.0671497200826,0.0123483777334,0.0399172184263,0.0334748648,0.0379210432937,-1.65406511509,2.27772750451,0.576284527131,0.0381522988732,0.699612149951,0.779561624517,1
1565825441138963876,185671,1565825441138963876,,0.691539850638,0.0424937345337,0.400248419208,0.0256055252569,0.720847397982,0.0247049142168,0.692179928279,0.0141998300712,0.0710607037976,0.0114586536929,0.0142890618846,0.019955729843,0.0530608290755,-2.3419515437,2.40344773754,0.70865781163,0.0334934294054,0.818685418889,0.807923511243,1
1565825441148965829,185672,1565825441148965829,,0.691609954043,0.0431776264052,0.400263207674,0.0259467629764,0.72079361685,0.0249524439004,0.692214347542,0.00933791694144,0.0689907100216,0.00856530097688,0.0398713668973,0.00464926590259,0.0853174093472,-2.54981295618,1.80627158952,0.733914227793,-0.0644980965622,0.810871939013,0.701668282258,1
1565825441158967887,185673,1565825441158967887,,0.691715349362,0.0438120569621,0.400238933586,0.0261948623329,0.720788591026,0.0251346842827,0.69220364336,0.0058907867392,0.0700791101709,0.0083454258166,0.00207143555557,-0.00375699535209,0.0714329191006,-1.25143597857,1.8508465155,1.05388645173,0.233569377819,0.43582355517,0.434876200006,1
1565825441168984857,185674,1565825441168984857,,0.6917865771,0.0442510610794,0.400307913607,0.0267181434362,0.720718376842,0.0251265174438,0.69225704779,0.00367654148686,0.0586607579251,0.0103883572289,0.0356061382749,-0.00711556402125,0.0721757682609,-1.02477082779,1.2382209407,1.99097262374,0.0092980816943,0.503185009393,0.409075142345,1
1565825441178965406,185675,1565825441178965406,,0.691847966914,0.0446104084129,0.400387559357,0.0270482651547,0.720605508912,0.0252134444263,0.692358558912,-0.00218609503156,0.0437190030273,0.00724230270611,0.0478185520195,-0.0229969522064,0.0683019548545,-0.897745399216,0.766677970852,1.62478127115,-0.122538187717,0.481796763146,0.654996009159,1
1565825441188965880,185676,1565825441188965880,,0.691902529451,0.0449038378201,0.400439253238,0.0274267433522,0.720546800649,0.0252495230094,0.692403454217,-0.0105875076735,0.0330798443969,0.00720430548003,0.0425888676678,-0.0293157156747,0.0494652351116,-0.723068998088,0.449561221685,1.72965947624,-0.202216263845,0.385351375059,0.716414966095,1
1565825441198963169,185677,1565825441198963169,,0.691971585699,0.0450371612913,0.400515610633,0.0277836382991,0.720425255768,0.0253157597208,0.692513272511,-0.00601117599507,0.0221485768976,0.00438292265491,0.0510213278182,-0.027436874986,0.0639777360516,-0.775265087551,-0.0444450151526,2.48494237908,-0.303028814636,0.504971702309,0.731412437463,1
1565825441208969692,185678,1565825441208969692,,0.692029832568,0.0451183684142,0.400722362704,0.0280583001134,0.720209212286,0.0253696449157,0.692724911816,-0.0126720718545,0.0163754543076,0.00544819485389,0.0203481237854,-0.0496305303805,0.0583191370128,-0.724597233014,-0.522539824627,1.83629000097,-0.322730441477,0.392938179252,0.757166763613,1
